[{"id":21293667,"lat":-27.1822,"lng":151.26234,"name":"United","brand":"United","address":"","postcode":"","state":""},{"id":33121767,"lat":-31.97762,"lng":115.81366,"name":"Ampol","brand":"Ampol","address":"","postcode":"","state":""},{"id":35429738,"lat":-35.34122,"lng":149.24442,"name":"BP","brand":"BP","address":"Yass Road","postcode":"","state":""},{"id":106185870,"lat":-37.96021,"lng":145.13618,"name":"BP Clayton South","brand":"BP","address":"","postcode":"","state":""},{"id":106795547,"lat":-37.87998,"lng":145.1661,"name":"Caltex","brand":"Caltex","address":"","postcode":"","state":""},{"id":134673983,"lat":-33.67844,"lng":150.28222,"name":"United","brand":"United","address":"Great Western Highway","postcode":"","state":""},{"id":148849322,"lat":-37.90099,"lng":145.14354,"name":"Ampol","brand":"Ampol","address":"","postcode":"","state":""},{"id":151000614,"lat":-35.21386,"lng":149.09626,"name":"7-Eleven","brand":"7-Eleven","address":"","postcode":"","state":""},{"id":161033351,"lat":-35.27575,"lng":149.13173,"name":"7/11 Braddon","brand":"7-Eleven","address":"","postcode":"","state":""},{"id":172653041,"lat":-35.34867,"lng":149.24345,"name":"Coles Express Queanbeyan East","brand":"Shell","address":"High Street","postcode":"","state":""},{"id":173810851,"lat":-28.06389,"lng":153.43764,"name":"Coles Express Miami","brand":"Shell","address":"Gold Coast Highway, Miami, 4220","postcode":"4220","state":""},{"id":197378227,"lat":-28.06848,"lng":153.4412,"name":"Brians Auto Centre","brand":"","address":"Gold Coast Highway, Miami, 4220","postcode":"4220","state":""},{"id":220382529,"lat":-33.75601,"lng":151.2826,"name":"United Dee Why Pittwater","brand":"United","address":"Pittwater Road, Dee Why, NSW, 2099","postcode":"2099","state":"NSW"},{"id":253725441,"lat":-33.70341,"lng":149.85458,"name":"Fuel Plus","brand":"","address":"","postcode":"","state":""},{"id":260323931,"lat":-34.28261,"lng":150.6364,"name":"Pheasants Nest Northbound Service Centre","brand":"Ampol","address":"Hume Motorway","postcode":"","state":""},{"id":266124320,"lat":-37.75305,"lng":145.36484,"name":"Coles Express","brand":"Shell","address":"Maroondah Highway, Lilydale, VIC, 3140","postcode":"3140","state":"VIC"},{"id":267874162,"lat":-28.18427,"lng":152.05396,"name":"Ampol Restaurant","brand":"Ampol","address":"","postcode":"","state":""},{"id":269905895,"lat":-27.62053,"lng":153.11526,"name":"7-Eleven","brand":"7-Eleven","address":"","postcode":"","state":""},{"id":282201566,"lat":-27.57289,"lng":151.94143,"name":"Metro","brand":"Metro Petroleum","address":"West Street","postcode":"","state":""},{"id":298586131,"lat":-38.11035,"lng":145.2642,"name":"BP","brand":"BP","address":"","postcode":"","state":""},{"id":304946819,"lat":-28.05593,"lng":117.84964,"name":"Swagman Roadhouse","brand":"Ampol","address":"","postcode":"","state":""},{"id":306575133,"lat":-25.31491,"lng":131.75655,"name":"Mogas","brand":"","address":"","postcode":"","state":""},{"id":307347250,"lat":-37.79413,"lng":144.94734,"name":"Liberty","brand":"Liberty","address":"Flemington Road","postcode":"","state":""},{"id":318854867,"lat":-35.33396,"lng":149.16978,"name":"Ampol","brand":"United","address":"Canberra Avenue","postcode":"","state":""},{"id":416375329,"lat":-27.57236,"lng":152.79194,"name":"Shell","brand":"Shell","address":"Mount Crosby Road, QLD","postcode":"","state":"QLD"},{"id":440527686,"lat":-31.55852,"lng":143.37751,"name":"Ampol Wilcannia Roadhouse","brand":"Ampol","address":"","postcode":"","state":""},{"id":472266862,"lat":-32.25324,"lng":148.60312,"name":"Ampol","brand":"Ampol","address":"","postcode":"","state":""},{"id":473592672,"lat":-28.80279,"lng":114.6209,"name":"Puma Tarcoola","brand":"Puma","address":"Brand Highway, Tarcoola Beach, WA","postcode":"","state":"WA"},{"id":480463752,"lat":-38.0326,"lng":145.30533,"name":"United","brand":"United","address":"Cranbourne Road","postcode":"","state":""},{"id":488963998,"lat":-30.33514,"lng":153.08085,"name":"BP Boambee","brand":"BP","address":"","postcode":"","state":""},{"id":527874305,"lat":-37.76358,"lng":145.16946,"name":"United Doncaster East","brand":"United","address":"","postcode":"","state":""},{"id":539982068,"lat":-32.79126,"lng":151.72541,"name":"7-Eleven","brand":"7-Eleven","address":"","postcode":"","state":""},{"id":569942097,"lat":-38.16161,"lng":145.93986,"name":"United","brand":"United","address":"Albert Road, 3820","postcode":"3820","state":""},{"id":585128032,"lat":-38.06196,"lng":145.45392,"name":"BP","brand":"BP","address":"","postcode":"","state":""},{"id":585128195,"lat":-37.68319,"lng":144.95673,"name":"BP","brand":"BP","address":"","postcode":"","state":""},{"id":585128273,"lat":-36.07302,"lng":143.226,"name":"BP","brand":"BP","address":"Broadway, Wycheproof, VIC, 3527","postcode":"3527","state":"VIC"},{"id":585129286,"lat":-30.31834,"lng":153.08924,"name":"BP Coffs Harbour South","brand":"BP","address":"","postcode":"","state":""},{"id":585129290,"lat":-30.48622,"lng":153.00871,"name":"BP Urunga","brand":"BP","address":"","postcode":"","state":""},{"id":585489388,"lat":-23.37263,"lng":150.5326,"name":"Fry's","brand":"","address":"","postcode":"","state":""},{"id":601725634,"lat":-26.94793,"lng":152.56074,"name":"United","brand":"United","address":"Hope Street, Kilcoy, QLD, 4515","postcode":"4515","state":"QLD"},{"id":602390332,"lat":-36.03667,"lng":146.96297,"name":"Coles Express","brand":"Coles Express","address":"Wagga Road","postcode":"","state":""},{"id":623013077,"lat":-31.82015,"lng":149.72553,"name":"Coolah's Top Servo","brand":"","address":"Binnia Street, Coolah, NSW, 2843","postcode":"2843","state":"NSW"},{"id":631458667,"lat":-38.06212,"lng":145.45892,"name":"Shell","brand":"Shell","address":"","postcode":"","state":""},{"id":631458703,"lat":-37.90331,"lng":145.16242,"name":"Shell Reddy Express","brand":"Shell","address":"","postcode":"","state":""},{"id":631458987,"lat":-32.92512,"lng":151.73643,"name":"Shell Nine Ways","brand":"","address":"","postcode":"","state":""},{"id":631459006,"lat":-29.93487,"lng":153.09492,"name":"Coles Express Halfway Creek","brand":"Coles Express","address":"Pacific Highway","postcode":"","state":""},{"id":634524224,"lat":-35.24663,"lng":150.53169,"name":"LPG Station","brand":"","address":"","postcode":"","state":""},{"id":634961371,"lat":-35.02178,"lng":117.88311,"name":"METRO Petroleum","brand":"Ampol","address":"","postcode":"","state":""},{"id":634961758,"lat":-31.84628,"lng":115.79553,"name":"Ampol","brand":"Ampol","address":"","postcode":"","state":""},{"id":634963000,"lat":-38.16958,"lng":144.38925,"name":"EG Australia","brand":"Ampol","address":"","postcode":"","state":""},{"id":634963067,"lat":-38.24647,"lng":145.04774,"name":"EG Australia","brand":"Ampol","address":"","postcode":"","state":""},{"id":634963199,"lat":-38.04566,"lng":145.24664,"name":"United","brand":"United","address":"Dandenong - Hastings Road","postcode":"","state":""},{"id":634963227,"lat":-38.02184,"lng":145.30175,"name":"Woolworths Petrol","brand":"Ampol","address":"","postcode":"","state":""},{"id":634963774,"lat":-37.79036,"lng":145.1706,"name":"Caltex","brand":"Caltex","address":"Doncaster Road","postcode":"","state":""},{"id":634964016,"lat":-37.75779,"lng":145.35525,"name":"U-Go Self Serve","brand":"","address":"Main Street, Lilydale, VIC, 3140","postcode":"3140","state":"VIC"},{"id":634965951,"lat":-35.36373,"lng":149.20678,"name":"Caltex Queanbeyan","brand":"Caltex","address":"","postcode":"","state":""},{"id":634966003,"lat":-35.30958,"lng":149.18789,"name":"Ampol Foodary Canberra Airport","brand":"Ampol","address":"","postcode":"","state":""},{"id":634967737,"lat":-31.94325,"lng":152.47128,"name":"Ampol","brand":"Ampol","address":"","postcode":"","state":""},{"id":634968625,"lat":-27.66297,"lng":153.1798,"name":"Caltex","brand":"Caltex","address":"","postcode":"","state":""},{"id":634969041,"lat":-27.93498,"lng":153.39084,"name":"Ampol","brand":"Ampol","address":"Brisbane Road, Labrador, QLD, 4215","postcode":"4215","state":"QLD"},{"id":646579773,"lat":-33.39741,"lng":150.08349,"name":"LPG Station","brand":"","address":"","postcode":"","state":""},{"id":685847722,"lat":-35.13028,"lng":147.34183,"name":"Ampol","brand":"Ampol","address":"","postcode":"","state":""},{"id":685850486,"lat":-33.73307,"lng":151.12647,"name":"7-Eleven","brand":"7-Eleven","address":"","postcode":"","state":""},{"id":844464667,"lat":-31.67705,"lng":128.88425,"name":"Eucla Motel","brand":"","address":"","postcode":"","state":""},{"id":865859032,"lat":-32.34585,"lng":115.76153,"name":"EG Australia","brand":"Ampol","address":"Warnbro Sound Avenue, Warnbro, WA, 6169","postcode":"6169","state":"WA"},{"id":1107369860,"lat":-37.77076,"lng":144.90584,"name":"Caltex Ascot Vale","brand":"","address":"Epsom Road","postcode":"","state":""},{"id":1295895372,"lat":-34.07737,"lng":151.01122,"name":"BP","brand":"BP","address":"","postcode":"","state":""},{"id":1307725782,"lat":-33.90706,"lng":150.91797,"name":"Woolworths Petrol","brand":"Ampol","address":"","postcode":"","state":""},{"id":1312464526,"lat":-38.15846,"lng":144.35606,"name":"APCO","brand":"Independent","address":"Moorabool Street, 3220","postcode":"3220","state":""},{"id":1395845538,"lat":-27.57584,"lng":152.70421,"name":"BP Blacksoil North","brand":"BP","address":"Warrego Highway, Blacksoil, 4306","postcode":"4306","state":""},{"id":1430961243,"lat":-38.31294,"lng":146.42004,"name":"United","brand":"United","address":"","postcode":"","state":""},{"id":1455780372,"lat":-33.93296,"lng":137.62682,"name":"BP Wallaroo","brand":"BP","address":"","postcode":"","state":""},{"id":1517041259,"lat":-35.99528,"lng":146.39141,"name":"Endeavour","brand":"","address":"","postcode":"","state":""},{"id":1520470902,"lat":-34.93671,"lng":138.55252,"name":"Eg Fuelco Ampol West Richmond","brand":"Ampol","address":"Marion Road, West Richmond, SA, 5033","postcode":"5033","state":"SA"},{"id":1557313465,"lat":-34.23284,"lng":116.14934,"name":"Caltex","brand":"Caltex","address":"","postcode":"","state":""},{"id":1558893151,"lat":-25.6425,"lng":149.7947,"name":"Ampol Taroom","brand":"Ampol","address":"","postcode":"","state":""},{"id":1602132301,"lat":-35.34928,"lng":149.24384,"name":"Ampol","brand":"Ampol","address":"Bungendore Road","postcode":"","state":""},{"id":1602669066,"lat":-35.35165,"lng":149.23355,"name":"Ampol","brand":"Ampol","address":"","postcode":"","state":""},{"id":1628339461,"lat":-38.20845,"lng":146.15098,"name":"United","brand":"United","address":"Princes Highway","postcode":"","state":""},{"id":1634539641,"lat":-35.4347,"lng":149.11257,"name":"Foodary","brand":"Ampol","address":"Were Street","postcode":"","state":""},{"id":1637380840,"lat":-37.06412,"lng":145.10023,"name":"Ampol","brand":"Ampol","address":"","postcode":"","state":""},{"id":1637380845,"lat":-37.06304,"lng":145.10201,"name":"Ampol","brand":"Ampol","address":"","postcode":"","state":""},{"id":1649908681,"lat":-27.46636,"lng":151.95019,"name":"BP Highfields","brand":"BP","address":"New England Highway","postcode":"","state":""},{"id":1655049600,"lat":-28.0746,"lng":153.36396,"name":"EG Australia","brand":"Ampol","address":"Railway Street","postcode":"","state":""},{"id":1655214231,"lat":-28.24372,"lng":153.5576,"name":"BP Connect Chinderah","brand":"BP","address":"","postcode":"","state":""},{"id":1655539399,"lat":-37.89404,"lng":144.72835,"name":"7-Eleven","brand":"7-Eleven","address":"","postcode":"","state":""},{"id":1674520314,"lat":-34.06435,"lng":151.01672,"name":"BP","brand":"BP","address":"","postcode":"","state":""},{"id":1709968391,"lat":-41.05415,"lng":145.90428,"name":"United","brand":"United","address":"","postcode":"","state":""},{"id":1710829327,"lat":-41.04779,"lng":145.9011,"name":"BP North Terrace","brand":"BP","address":"","postcode":"","state":""},{"id":1749090115,"lat":-26.54801,"lng":151.83851,"name":"Freedom Fuels Kingaroy","brand":"","address":"Knight Street, Kingaroy, QLD, 4610","postcode":"4610","state":"QLD"},{"id":1760845729,"lat":-38.1967,"lng":144.31772,"name":"APCO Easy Shop","brand":"","address":"","postcode":"","state":""},{"id":1781361478,"lat":-38.37804,"lng":142.48249,"name":"BP","brand":"BP","address":"","postcode":"","state":""},{"id":1781664543,"lat":-38.37159,"lng":142.45989,"name":"BP Dennington","brand":"BP","address":"","postcode":"","state":""},{"id":1781664559,"lat":-38.36698,"lng":142.49412,"name":"BP One Stop - Warrnambool","brand":"BP","address":"","postcode":"","state":""},{"id":1781664574,"lat":-38.36953,"lng":142.46933,"name":"BP One Stop","brand":"BP","address":"","postcode":"","state":""},{"id":1781664600,"lat":-38.37732,"lng":142.48041,"name":"EG Australia","brand":"Ampol","address":"","postcode":"","state":""},{"id":1782260859,"lat":-38.22787,"lng":143.14628,"name":"BP Camperdown","brand":"BP","address":"","postcode":"","state":""},{"id":1782260860,"lat":-38.22713,"lng":143.13766,"name":"BP","brand":"BP","address":"","postcode":"","state":""},{"id":1783487298,"lat":-35.88182,"lng":140.0538,"name":"Tinty Auto & Ag","brand":"BP","address":"","postcode":"","state":""},{"id":1788421057,"lat":-34.97555,"lng":138.52845,"name":"Caltex Glenelg North","brand":"Caltex","address":"Anzac Highway","postcode":"","state":""},{"id":1795162757,"lat":-38.22321,"lng":146.4668,"name":"United","brand":"United","address":"Princes Highway, 3844","postcode":"3844","state":""},{"id":1795662915,"lat":-34.88663,"lng":138.61649,"name":"Caltex Collinswood","brand":"Caltex","address":"","postcode":"","state":""},{"id":1799465500,"lat":-34.88573,"lng":138.65918,"name":"Woolworths Petrol Campbelltown","brand":"Ampol","address":"","postcode":"","state":""},{"id":1811229359,"lat":-34.99451,"lng":138.5753,"name":"U-Go","brand":"","address":"","postcode":"","state":""},{"id":1824329376,"lat":-33.94684,"lng":115.07466,"name":"Coles","brand":"Coles Express","address":"WA","postcode":"","state":"WA"},{"id":1824582078,"lat":-32.61493,"lng":152.08024,"name":"The Rock Roadhouse","brand":"","address":"","postcode":"","state":""},{"id":1826426944,"lat":-32.25639,"lng":148.63259,"name":"EG Australia","brand":"Ampol","address":"","postcode":"","state":""},{"id":1826426958,"lat":-32.54871,"lng":148.94071,"name":"Ampol","brand":"Ampol","address":"","postcode":"","state":""},{"id":1831952279,"lat":-30.647,"lng":151.4923,"name":"BP","brand":"BP","address":"","postcode":"","state":""},{"id":1833961765,"lat":-23.68203,"lng":150.71343,"name":"BP Marmor","brand":"BP","address":"","postcode":"","state":""},{"id":1836070207,"lat":-33.89196,"lng":151.05743,"name":"Ampol","brand":"Ampol","address":"","postcode":"","state":""},{"id":1836112596,"lat":-33.90519,"lng":151.04178,"name":"7-Eleven","brand":"Mobil","address":"","postcode":"","state":""},{"id":1847515608,"lat":-27.72904,"lng":153.22433,"name":"Shell","brand":"Shell","address":"","postcode":"","state":""},{"id":1852481988,"lat":-22.69673,"lng":117.78572,"name":"Coles Express","brand":"Shell","address":"","postcode":"","state":""},{"id":1852992380,"lat":-22.64432,"lng":133.34569,"name":"Aileron Roadhouse","brand":"","address":"","postcode":"","state":""},{"id":1880502482,"lat":-28.01642,"lng":153.16169,"name":"Ampol Canungra","brand":"Ampol","address":"Christie Street, Canungra, 4275","postcode":"4275","state":""},{"id":1897229446,"lat":-34.6478,"lng":138.64355,"name":"OTR Angle Vale","brand":"OTR","address":"Heaslip Road, Angle Vale, 5117","postcode":"5117","state":""},{"id":1912639572,"lat":-36.37918,"lng":141.24067,"name":"Kaniva Community Roadhouse","brand":"","address":"","postcode":"","state":""},{"id":1912647473,"lat":-34.60812,"lng":150.22494,"name":"Shell","brand":"Shell","address":"","postcode":"","state":""},{"id":1919398554,"lat":-30.33496,"lng":149.76994,"name":"BP Narrabri","brand":"BP","address":"Cooma Road, Narrabri, NSW, 2390","postcode":"2390","state":"NSW"},{"id":1923571551,"lat":-38.13665,"lng":144.33685,"name":"Caltex Woolworths","brand":"Ampol","address":"Shannon Avenue","postcode":"","state":""},{"id":1935245361,"lat":-37.67846,"lng":144.99904,"name":"7-Eleven Thomastown","brand":"7-Eleven","address":"Main Street","postcode":"","state":""},{"id":1974699358,"lat":-33.92145,"lng":151.09608,"name":"Budget Petrol Belmore","brand":"No name","address":"","postcode":"","state":""},{"id":2003851266,"lat":-31.63826,"lng":129.00352,"name":"Shell Border Village","brand":"Shell","address":"","postcode":"","state":""},{"id":2003851303,"lat":-31.81777,"lng":128.22532,"name":"Mundrabilla Roadhouse","brand":"","address":"","postcode":"","state":""},{"id":2015850739,"lat":-27.54427,"lng":152.34476,"name":"BP College View","brand":"BP","address":"","postcode":"","state":""},{"id":2037719740,"lat":-19.63707,"lng":134.19248,"name":"BP","brand":"BP","address":"","postcode":"","state":""},{"id":2086698107,"lat":-28.21878,"lng":152.01017,"name":"Koremans BP","brand":"BP","address":"","postcode":"","state":""},{"id":2086698166,"lat":-28.21273,"lng":152.03601,"name":"BP","brand":"BP","address":"Albion Street","postcode":"","state":""},{"id":2094165161,"lat":-33.36549,"lng":150.70957,"name":"Colo Heights Service Station Restaurant and Cafe","brand":"Ampol","address":"","postcode":"","state":""},{"id":2097754338,"lat":-27.91277,"lng":153.4017,"name":"Woolworths Petrol","brand":"Ampol","address":"","postcode":"","state":""},{"id":2103425268,"lat":-37.79773,"lng":144.97075,"name":"BP","brand":"BP","address":"Elgin Street","postcode":"","state":""},{"id":2105133079,"lat":-35.32864,"lng":149.16359,"name":"Coles Express","brand":"Shell","address":"","postcode":"","state":""},{"id":2140974356,"lat":-28.05693,"lng":153.39407,"name":"Ampol","brand":"Ampol","address":"Markeri Street, Robina, 4226","postcode":"4226","state":""},{"id":2147610608,"lat":-28.09347,"lng":153.39133,"name":"Ampol","brand":"Ampol","address":"Gemvale Road","postcode":"","state":""},{"id":2156900856,"lat":-35.4131,"lng":149.12821,"name":"BP Express Chisholm","brand":"BP","address":"","postcode":"","state":""},{"id":2166619463,"lat":-34.58327,"lng":142.77058,"name":"Robinvale Roadhouse","brand":"Ampol","address":"Bromley Road, Robinvale, VIC, 3549","postcode":"3549","state":"VIC"},{"id":2196566176,"lat":-28.14481,"lng":153.47164,"name":"Shell Currumbin","brand":"Shell","address":"","postcode":"","state":""},{"id":2235799035,"lat":-37.79928,"lng":145.28414,"name":"BP","brand":"BP","address":"Mount Dandenong Road, Croydon, VIC, 3136","postcode":"3136","state":"VIC"},{"id":2241228144,"lat":-40.99023,"lng":145.7281,"name":"Caltex","brand":"Caltex","address":"","postcode":"","state":""},{"id":2261069265,"lat":-34.99836,"lng":138.62352,"name":"OTR Belair","brand":"OTR","address":"Main Road, Belair, 5052","postcode":"5052","state":""},{"id":2272589519,"lat":-37.55188,"lng":143.90254,"name":"Brown Hill Service Station","brand":"Shell","address":"","postcode":"","state":""},{"id":2292222547,"lat":-37.70577,"lng":140.49871,"name":"Tantanoola Roadhouse","brand":"","address":"","postcode":"","state":""},{"id":2298871948,"lat":-28.06551,"lng":153.40408,"name":"7-Eleven Robina","brand":"7-Eleven","address":"Commerce Drive, Robina, QLD, 4226","postcode":"4226","state":"QLD"},{"id":2303800834,"lat":-33.20315,"lng":138.60344,"name":"Hunts Fuel","brand":"Ampol","address":"","postcode":"","state":""},{"id":2387094475,"lat":-35.2708,"lng":149.13226,"name":"Coles Express Braddon","brand":"Shell","address":"","postcode":"","state":""},{"id":2387094476,"lat":-35.2056,"lng":149.03319,"name":"Coles Express Charnwood","brand":"Coles Express","address":"Charnwood Place","postcode":"","state":""},{"id":2387171281,"lat":-35.27586,"lng":149.13279,"name":"BP Braddon","brand":"BP","address":"","postcode":"","state":""},{"id":2387171310,"lat":-35.18943,"lng":149.08157,"name":"Caltex Star Mart Nicholls","brand":"Caltex","address":"","postcode":"","state":""},{"id":2408090024,"lat":-14.48502,"lng":132.25719,"name":"United Katherine South","brand":"United","address":"Victoria Highway","postcode":"","state":""},{"id":2433621601,"lat":-33.69955,"lng":150.92799,"name":"EG Australia","brand":"Ampol","address":"","postcode":"","state":""},{"id":2449047498,"lat":-34.81947,"lng":138.59161,"name":"OTR Dry Creek","brand":"BP","address":"Vater Street, Dry Creek, 5094","postcode":"5094","state":""},{"id":2491905322,"lat":-37.67445,"lng":144.9554,"name":"7-Eleven","brand":"7-Eleven","address":"","postcode":"","state":""},{"id":2521913472,"lat":-33.90187,"lng":151.20831,"name":"United Waterloo","brand":"United","address":"Bourke Street","postcode":"","state":""},{"id":2528773041,"lat":-31.90111,"lng":115.96908,"name":"Gull Guildford","brand":"Gull","address":"","postcode":"","state":""},{"id":2557878967,"lat":-31.72554,"lng":148.65319,"name":"Ampol","brand":"Ampol","address":"Newell Highway, Gilgandra, 2827","postcode":"2827","state":""},{"id":2573959530,"lat":-33.90802,"lng":151.23412,"name":"Shell","brand":"Shell","address":"","postcode":"","state":""},{"id":2633455322,"lat":-23.81519,"lng":114.00957,"name":"Minilya Bridge Roadhouse","brand":"","address":"","postcode":"","state":""},{"id":2633537780,"lat":-36.67567,"lng":149.84334,"name":"EG Australia","brand":"Ampol","address":"","postcode":"","state":""},{"id":2641069399,"lat":-30.10771,"lng":116.63285,"name":"BP Roadhouse Wubin","brand":"BP","address":"","postcode":"","state":""},{"id":2643644414,"lat":-33.92837,"lng":151.19519,"name":"BP Mascot","brand":"BP","address":"Botany Road","postcode":"","state":""},{"id":2729792342,"lat":-33.67581,"lng":136.92506,"name":"BP Cowell","brand":"BP","address":"","postcode":"","state":""},{"id":2938291382,"lat":-28.32681,"lng":153.40928,"name":"Ampol","brand":"Ampol","address":"","postcode":"","state":""},{"id":2938291383,"lat":-28.32735,"lng":153.40844,"name":"BP","brand":"BP","address":"","postcode":"","state":""},{"id":2992276511,"lat":-32.61047,"lng":149.60154,"name":"Busy Bee Petrol and Car Wash","brand":"Ampol","address":"","postcode":"","state":""},{"id":3154092380,"lat":-25.23986,"lng":152.28981,"name":"Caltex","brand":"Caltex","address":"","postcode":"","state":""},{"id":3230959481,"lat":-29.01,"lng":153.43565,"name":"BP Broadwater","brand":"BP","address":"","postcode":"","state":""},{"id":3231102541,"lat":-29.70365,"lng":152.95748,"name":"BP Tornik","brand":"BP","address":"","postcode":"","state":""},{"id":3231102542,"lat":-29.71133,"lng":152.94531,"name":"United","brand":"United","address":"","postcode":"","state":""},{"id":3231102543,"lat":-29.71187,"lng":152.94638,"name":"Ampol","brand":"Ampol","address":"","postcode":"","state":""},{"id":3240854214,"lat":-32.21652,"lng":152.32281,"name":"Ampol","brand":"Ampol","address":"","postcode":"","state":""},{"id":3240854215,"lat":-32.21925,"lng":152.32217,"name":"BP Coolongolook","brand":"BP","address":"","postcode":"","state":""},{"id":3248621531,"lat":-27.75254,"lng":153.18723,"name":"United","brand":"United","address":"","postcode":"","state":""},{"id":3267092359,"lat":-32.03562,"lng":115.92708,"name":"Caltex","brand":"Caltex","address":"","postcode":"","state":""},{"id":3274358761,"lat":-32.79832,"lng":151.7178,"name":"Shell","brand":"Shell","address":"","postcode":"","state":""},{"id":3274358769,"lat":-32.78317,"lng":151.73721,"name":"BP","brand":"BP","address":"","postcode":"","state":""},{"id":3276550474,"lat":-37.18753,"lng":145.7029,"name":"Ampol - I&M Simpson & Son","brand":"Caltex","address":"","postcode":"","state":""},{"id":3301887869,"lat":-34.8787,"lng":138.63474,"name":"BP X CONVENIENCE OG ROAD","brand":"BP","address":"O G Road, Klemzig, SA, 5087","postcode":"5087","state":"SA"},{"id":3308392114,"lat":-33.71985,"lng":151.11673,"name":"7-Eleven Wahroonga","brand":"7-Eleven","address":"Pacific Highway, Wahroonga, NSW, 2076","postcode":"2076","state":"NSW"},{"id":3351233182,"lat":-38.25828,"lng":145.19013,"name":"United","brand":"United","address":"","postcode":"","state":""},{"id":3367419972,"lat":-37.84752,"lng":145.17007,"name":"7-Eleven","brand":"7-Eleven","address":"","postcode":"","state":""},{"id":3446357103,"lat":-28.09814,"lng":153.42574,"name":"Ampol Treetops","brand":"Ampol","address":"Executive Drive, Burleigh Waters, QLD, 4220","postcode":"4220","state":"QLD"},{"id":3462806054,"lat":-32.27212,"lng":150.8901,"name":"Mobil","brand":"Mobil","address":"Maitland Street, Muswellbrook, 2333","postcode":"2333","state":""},{"id":3484101254,"lat":-38.07593,"lng":144.36886,"name":"BP Norlane","brand":"BP","address":"Princes Highway","postcode":"","state":""},{"id":3555319856,"lat":-27.64054,"lng":153.13142,"name":"Caltex","brand":"Caltex","address":"","postcode":"","state":""},{"id":3742187828,"lat":-28.67137,"lng":114.62216,"name":"440 Roadhouse","brand":"Caltex","address":"Chapman Road, Glenfield, WA","postcode":"","state":"WA"},{"id":3797631341,"lat":-37.20278,"lng":145.05608,"name":"Ampol","brand":"Ampol","address":"","postcode":"","state":""},{"id":3835060267,"lat":-37.77765,"lng":145.45845,"name":"Ampol","brand":"Ampol","address":"Warburton Highway, Seville, VIC, 3139","postcode":"3139","state":"VIC"},{"id":3877570872,"lat":-35.01831,"lng":150.57936,"name":"The Log Cabin Truck Stop","brand":"United","address":"","postcode":"","state":""},{"id":3926216336,"lat":-42.78021,"lng":147.06581,"name":"Woolworths Petrol","brand":"Ampol","address":"","postcode":"","state":""},{"id":3952561789,"lat":-37.82733,"lng":145.26104,"name":"BP","brand":"BP","address":"Canterbury Road, Ringwood East, VIC, 3135","postcode":"3135","state":"VIC"},{"id":4230081876,"lat":-33.74512,"lng":150.61092,"name":"Coles Express","brand":"Shell","address":"","postcode":"","state":""},{"id":4363983244,"lat":-34.85602,"lng":138.56463,"name":"OTR Angle Park","brand":"OTR","address":"South Road, Angle Park, 5010","postcode":"5010","state":""},{"id":4412608095,"lat":-27.92785,"lng":153.36243,"name":"Hope Energy Arundel","brand":"Hope Energy","address":"Brisbane Road, Arundel, QLD, 4214","postcode":"4214","state":"QLD"},{"id":4426240358,"lat":-35.73078,"lng":147.30826,"name":"Ampol","brand":"Ampol","address":"","postcode":"","state":""},{"id":4717596772,"lat":-23.45408,"lng":119.79823,"name":"BP Capricorn","brand":"BP","address":"Great Northern Highway","postcode":"","state":""},{"id":4808412321,"lat":-34.58836,"lng":138.74281,"name":"AM/PM Willaston","brand":"BP","address":"Main North Road","postcode":"","state":""},{"id":4853495608,"lat":-38.20745,"lng":146.15579,"name":"Caltex Trafalgar East","brand":"Caltex","address":"Princes Highway","postcode":"","state":""},{"id":5008551423,"lat":-32.11526,"lng":115.8372,"name":"EG Ampol South Lake","brand":"Ampol","address":"North Lake Road, South Lake, 6164","postcode":"6164","state":""},{"id":5048572087,"lat":-33.50812,"lng":151.37175,"name":"United Empire Bay","brand":"United","address":"Empire Bay Drive","postcode":"","state":""},{"id":5152975121,"lat":-37.75706,"lng":145.11375,"name":"BP","brand":"BP","address":"","postcode":"","state":""},{"id":5240249367,"lat":-38.57901,"lng":146.01134,"name":"Meeniyan Service Station","brand":"","address":"","postcode":"","state":""},{"id":5344859369,"lat":-34.42628,"lng":150.87974,"name":"EG Australia","brand":"Ampol","address":"Crown Street, Wollongong, NSW, 2500","postcode":"2500","state":"NSW"},{"id":5411429454,"lat":-38.14507,"lng":144.3352,"name":"United Geelong","brand":"United","address":"","postcode":"","state":""},{"id":5785924125,"lat":-14.45413,"lng":132.24514,"name":"Shell Katherine Truckstop","brand":"Shell","address":"Zimin Drive","postcode":"","state":""},{"id":5809760177,"lat":-27.47469,"lng":153.13009,"name":"BP","brand":"BP","address":"Manly Road, Tingalpa, QLD, 4173","postcode":"4173","state":"QLD"},{"id":5909004238,"lat":-31.75262,"lng":115.80334,"name":"Puma","brand":"Puma","address":"Wanneroo Road, Wanneroo, WA, 6065","postcode":"6065","state":"WA"},{"id":6131349486,"lat":-34.87704,"lng":138.4928,"name":"LPG Station","brand":"","address":"","postcode":"","state":""},{"id":6283731148,"lat":-34.57542,"lng":142.74538,"name":"LPG Station","brand":"","address":"","postcode":"","state":""},{"id":6837133733,"lat":-38.06635,"lng":144.38087,"name":"United Corio North","brand":"United","address":"Princes Highway, Corio, VIC, 3214","postcode":"3214","state":"VIC"},{"id":6926580084,"lat":-33.95972,"lng":115.0766,"name":"Better Choice - Margaret River","brand":"Better Choice","address":"Bussell Highway, Margaret River, WA, 6285","postcode":"6285","state":"WA"},{"id":6991695633,"lat":-35.08967,"lng":150.59064,"name":"Ultra Petroleum St Georges Basin","brand":"","address":"St Georges Road","postcode":"","state":""},{"id":7120934225,"lat":-27.71414,"lng":153.19035,"name":"BP Beenleigh","brand":"BP","address":"Logan River Road, Beenleigh, 4207","postcode":"4207","state":""},{"id":7151182013,"lat":-32.80996,"lng":151.63261,"name":"Ampol","brand":"Ampol","address":"","postcode":"","state":""},{"id":7866985179,"lat":-30.5933,"lng":138.4042,"name":"Leigh Creek Motors","brand":"Perry's","address":"Black Oak Drive, Leigh Creek, SA, 5731","postcode":"5731","state":"SA"},{"id":8041167071,"lat":-28.8609,"lng":153.51674,"name":"BP","brand":"BP","address":"","postcode":"","state":""},{"id":8198117417,"lat":-35.50474,"lng":138.77642,"name":"Woolworths Caltex Goolwa","brand":"Caltex","address":"Beach Road, 5214","postcode":"5214","state":""},{"id":8198143770,"lat":-35.0651,"lng":138.86419,"name":"AMPM Mt Barker","brand":"AMPM","address":"Railway Place, Mount Barker, SA, 5251","postcode":"5251","state":"SA"},{"id":8281019821,"lat":-36.42059,"lng":145.17455,"name":"Shell","brand":"Shell","address":"","postcode":"","state":""},{"id":8311602644,"lat":-31.77989,"lng":115.74406,"name":"BP Mullaloo","brand":"BP","address":"","postcode":"","state":""},{"id":8574309068,"lat":-26.57947,"lng":148.7754,"name":"BP Diesel Roma","brand":"BP","address":"","postcode":"","state":""},{"id":8721496592,"lat":-32.60679,"lng":149.59985,"name":"HC Morgan Service Station","brand":"Mobil","address":"","postcode":"","state":""},{"id":8852538489,"lat":-32.21835,"lng":152.32154,"name":"Mobil Coolongolook","brand":"Mobil","address":"","postcode":"","state":""},{"id":9222696561,"lat":-25.58846,"lng":151.29973,"name":"BP Mundubbera","brand":"BP","address":"Bouverie Street","postcode":"","state":""},{"id":9338829760,"lat":-37.805,"lng":145.22989,"name":"7-Eleven","brand":"7-Eleven","address":"Warrandyte Road, Ringwood, VIC, 3134","postcode":"3134","state":"VIC"},{"id":9408862222,"lat":-37.81888,"lng":145.17556,"name":"Shell","brand":"Shell","address":"","postcode":"","state":""},{"id":9500551391,"lat":-35.10665,"lng":138.50727,"name":"X Convenience Lonsdale","brand":"Mobil","address":"Aldershot Road, Lonsdale, SA, 5160","postcode":"5160","state":"SA"},{"id":9726856260,"lat":-37.78671,"lng":144.88992,"name":"Ampol Footscray","brand":"Ampol","address":"Gordon Street","postcode":"","state":""},{"id":10557264951,"lat":-34.41503,"lng":150.89325,"name":"Ampol Foodary Wollongong North","brand":"Ampol","address":"Flinders Street, Wollongong, NSW, 2500","postcode":"2500","state":"NSW"},{"id":10711554457,"lat":-38.19405,"lng":144.34227,"name":"APCO Grovedale","brand":"APCO","address":"Torquay Road","postcode":"","state":""},{"id":10757829533,"lat":-37.85236,"lng":145.17016,"name":"BP","brand":"BP","address":"Springvale Road, Vermont South, VIC, 3133","postcode":"3133","state":"VIC"},{"id":10841786046,"lat":-37.94142,"lng":145.16679,"name":"U-Go Self Serve","brand":"","address":"","postcode":"","state":""},{"id":11259646742,"lat":-34.29043,"lng":146.06317,"name":"Ampol","brand":"Ampol","address":"","postcode":"","state":""},{"id":11301399191,"lat":-37.9108,"lng":145.03472,"name":"Amplify - McKinnon","brand":"Ampol","address":"McKinnon Road, McKinnon, VIC, 3204","postcode":"3204","state":"VIC"},{"id":11541841689,"lat":-34.17376,"lng":142.19308,"name":"Shell Buronga","brand":"Shell","address":"Hendy Road, Buronga, NSW, 2739","postcode":"2739","state":"NSW"},{"id":11751859382,"lat":-37.7121,"lng":145.14937,"name":"United","brand":"United","address":"","postcode":"","state":""},{"id":11984814903,"lat":-27.44637,"lng":153.04221,"name":"Shell Coles Express Newstead","brand":"Shell","address":"Breakfast Creek Road, Newstead, 4006","postcode":"4006","state":""},{"id":12189368439,"lat":-38.16854,"lng":144.42539,"name":"BP Moolap","brand":"BP","address":"Portarlington Road","postcode":"","state":""},{"id":12210721515,"lat":-27.70811,"lng":153.09321,"name":"United","brand":"United","address":"","postcode":"","state":""},{"id":12304344632,"lat":-27.67337,"lng":153.05301,"name":"7-Eleven","brand":"7-Eleven","address":"","postcode":"","state":""},{"id":12418140408,"lat":-37.79091,"lng":144.9764,"name":"United Fitzroy","brand":"United","address":"Nicholson Street","postcode":"","state":""},{"id":12420549273,"lat":-38.02309,"lng":144.39659,"name":"Shell Lara","brand":"Shell","address":"Forest Road South","postcode":"","state":""},{"id":12499392063,"lat":-34.28152,"lng":150.64015,"name":"Pheasants Nest Southbound Service Station","brand":"Ampol","address":"Hume Motorway","postcode":"","state":""},{"id":12500015387,"lat":-27.6896,"lng":153.19046,"name":"Freedom Fuels Loganholme","brand":"Freedom","address":"","postcode":"","state":""},{"id":12509094214,"lat":-27.67075,"lng":153.20091,"name":"BP","brand":"BP","address":"","postcode":"","state":""},{"id":12784984496,"lat":-27.47468,"lng":153.1438,"name":"EG Ampol","brand":"Ampol","address":"Manly Road, Tingalpa, QLD, 4173","postcode":"4173","state":"QLD"},{"id":12854942528,"lat":-27.58439,"lng":153.28114,"name":"7-Eleven","brand":"7-Eleven","address":"","postcode":"","state":""},{"id":13349082568,"lat":-27.34219,"lng":153.01079,"name":"Ampol","brand":"Ampol","address":"Gympie Road, Carseldine, QLD, 4034","postcode":"4034","state":"QLD"},{"id":13531893363,"lat":-27.56118,"lng":153.19783,"name":"EG Australia","brand":"Ampol","address":"Mount Cotton Road, Capalaba, QLD, 4157","postcode":"4157","state":"QLD"},{"id":13613520059,"lat":-33.93456,"lng":151.15214,"name":"Speedway Arncliffe","brand":"Speedway","address":"Princes Highway","postcode":"","state":""},{"id":13616217600,"lat":-37.74788,"lng":145.03015,"name":"United Preston","brand":"United","address":"VIC","postcode":"","state":"VIC"},{"id":16701988,"lat":-37.73973,"lng":144.94809,"name":"BP Southvale","brand":"BP","address":"","postcode":"","state":""},{"id":27631285,"lat":-35.08109,"lng":138.8679,"name":"Caltex","brand":"Caltex","address":"","postcode":"","state":""},{"id":39245760,"lat":-38.04411,"lng":145.25239,"name":"BP","brand":"BP","address":"","postcode":"","state":""},{"id":42714034,"lat":-27.27332,"lng":153.01517,"name":"7-Eleven","brand":"7-Eleven","address":"Dohles Rocks Road, Murrumba Downs, QLD, 4503","postcode":"4503","state":"QLD"},{"id":48348473,"lat":-31.76739,"lng":115.74957,"name":"Coles Express Ocean Reef","brand":"Coles Express","address":"","postcode":"","state":""},{"id":50709176,"lat":-37.6978,"lng":144.78042,"name":"United","brand":"United","address":"Melton Highway, Taylors Lakes, VIC, 3038","postcode":"3038","state":"VIC"},{"id":55883508,"lat":-37.83434,"lng":145.16369,"name":"EG Australia","brand":"Ampol","address":"Canterbury Road, Forest Hill, VIC, 3131","postcode":"3131","state":"VIC"},{"id":57746293,"lat":-32.07505,"lng":115.7809,"name":"United","brand":"United","address":"Winterfold Road","postcode":"","state":""},{"id":61163119,"lat":-37.65013,"lng":145.01213,"name":"Caltex Epping","brand":"Caltex","address":"","postcode":"","state":""},{"id":62057346,"lat":-38.01867,"lng":145.29484,"name":"Mobil","brand":"Mobil","address":"","postcode":"","state":""},{"id":62149816,"lat":-37.65137,"lng":145.02357,"name":"7-Eleven","brand":"7-Eleven","address":"High Street","postcode":"","state":""},{"id":90554063,"lat":-38.15876,"lng":144.37555,"name":"APCO - East Geelong","brand":"Independent","address":"Ormond Road, East Geelong, 3219","postcode":"3219","state":""},{"id":90555062,"lat":-38.10159,"lng":144.34552,"name":"Ampol","brand":"Ampol","address":"","postcode":"","state":""},{"id":90555064,"lat":-38.02271,"lng":144.41266,"name":"APCO","brand":"Independent","address":"Mill Road, Lara, 3212","postcode":"3212","state":""},{"id":90556289,"lat":-37.57619,"lng":143.84477,"name":"APCO","brand":"Independent","address":"Skipton Street, Redan, 3350","postcode":"3350","state":""},{"id":90558134,"lat":-37.57729,"lng":143.86859,"name":"APCO","brand":"","address":"Main Road, Golden Point, 3350","postcode":"3350","state":""},{"id":94325102,"lat":-37.82132,"lng":144.83492,"name":"BP","brand":"BP","address":"Princes Highway","postcode":"","state":""},{"id":94999604,"lat":-15.47472,"lng":145.24965,"name":"Caltex Cooktown","brand":"","address":"","postcode":"","state":""},{"id":97263895,"lat":-31.8946,"lng":116.0312,"name":"Caltex Woolworths","brand":"Ampol","address":"","postcode":"","state":""},{"id":102517447,"lat":-33.73317,"lng":151.13136,"name":"EG Australia","brand":"Ampol","address":"Pacific Highway, Turramurra, 2074","postcode":"2074","state":""},{"id":104114731,"lat":-34.33658,"lng":150.9122,"name":"Shell Petrol Station","brand":"Shell","address":"","postcode":"","state":""},{"id":107160012,"lat":-34.79297,"lng":138.69212,"name":"OTR Golden Grove","brand":"OTR","address":"The Golden Way, Golden Grove","postcode":"","state":""},{"id":126882065,"lat":-35.36517,"lng":149.09363,"name":"7-Eleven","brand":"7-Eleven","address":"","postcode":"","state":""},{"id":127124113,"lat":-27.73293,"lng":153.22836,"name":"BP Stapylton","brand":"BP","address":"Stapylton, QLD, 4207","postcode":"4207","state":"QLD"},{"id":128234443,"lat":-37.56029,"lng":143.8393,"name":"Shell","brand":"Shell","address":"Sturt Street, VIC, 3350","postcode":"3350","state":"VIC"},{"id":135907632,"lat":-32.18303,"lng":152.51622,"name":"Ampol","brand":"Ampol","address":"","postcode":"","state":""},{"id":140214458,"lat":-37.74886,"lng":144.77793,"name":"United","brand":"United","address":"Station Road, VIC","postcode":"","state":"VIC"},{"id":142433749,"lat":-38.24533,"lng":145.53738,"name":"BP","brand":"BP","address":"","postcode":"","state":""},{"id":144954053,"lat":-27.20934,"lng":153.04289,"name":"Ampol","brand":"Ampol","address":"Deception Bay Road, Rothwell, QLD, 4022","postcode":"4022","state":"QLD"},{"id":147586284,"lat":-37.55993,"lng":143.84401,"name":"United","brand":"United","address":"Sturt Street, 3350","postcode":"3350","state":""},{"id":149645592,"lat":-37.5405,"lng":143.83596,"name":"Metro Petroleum","brand":"Metro Petroleum","address":"","postcode":"","state":""},{"id":151227165,"lat":-37.56038,"lng":143.84806,"name":"Shell","brand":"Shell","address":"Sturt Street, 3350","postcode":"3350","state":""},{"id":153747179,"lat":-33.41926,"lng":149.6077,"name":"BP","brand":"BP","address":"","postcode":"","state":""},{"id":158540596,"lat":-31.86559,"lng":116.03284,"name":"Caltex Stratton","brand":"Caltex","address":"","postcode":"","state":""},{"id":167561475,"lat":-38.12219,"lng":144.34162,"name":"Caltex Woolworths","brand":"Ampol","address":"Thompson Road","postcode":"","state":""},{"id":170402782,"lat":-35.35083,"lng":149.08538,"name":"BP Express Phillip","brand":"BP","address":"","postcode":"","state":""},{"id":170402788,"lat":-35.35008,"lng":149.08509,"name":"Coles Express Phillip","brand":"Shell","address":"","postcode":"","state":""},{"id":172311748,"lat":-35.22508,"lng":149.16586,"name":"BP Watson","brand":"BP","address":"","postcode":"","state":""},{"id":174406830,"lat":-37.88645,"lng":144.75556,"name":"BP","brand":"BP","address":"Point Cook Road, Seabrook, VIC, 3028","postcode":"3028","state":"VIC"},{"id":175856898,"lat":-37.71699,"lng":145.12197,"name":"BP Montmorency","brand":"BP","address":"Rattray Road, Montmorency, VIC, 3094","postcode":"3094","state":"VIC"},{"id":183100705,"lat":-34.86151,"lng":138.60061,"name":"On the Run","brand":"On the Run","address":"Main North Road, Blair Athol, 5084","postcode":"5084","state":""},{"id":183432190,"lat":-21.16588,"lng":149.15406,"name":"BP Truckstop City Gates","brand":"BP","address":"Nebo Road","postcode":"","state":""},{"id":187189953,"lat":-23.35059,"lng":119.7413,"name":"Shell Newman","brand":"Shell","address":"","postcode":"","state":""},{"id":187897233,"lat":-38.33066,"lng":144.31725,"name":"EG Torquay","brand":"Ampol","address":"Surf Coast Highway","postcode":"","state":""},{"id":189628399,"lat":-34.9626,"lng":138.64373,"name":"OTR Glen Osmond","brand":"OTR","address":"Glen Osmond Road, Glen Osmond, 5064","postcode":"5064","state":""},{"id":189782665,"lat":-31.45007,"lng":130.89587,"name":"Nullarbor Roadhouse","brand":"mogas","address":"","postcode":"","state":""},{"id":199343502,"lat":-31.89622,"lng":115.82885,"name":"BP","brand":"BP","address":"Main Street","postcode":"","state":""},{"id":201385786,"lat":-35.34023,"lng":149.05185,"name":"Ampol Foodary Weston","brand":"Ampol","address":"Brierly Street","postcode":"","state":""},{"id":204925802,"lat":-27.48768,"lng":153.10024,"name":"7-Eleven","brand":"7-Eleven","address":"","postcode":"","state":""},{"id":206103705,"lat":-35.39279,"lng":149.06898,"name":"United","brand":"United","address":"O'Halloran Circuit","postcode":"","state":""},{"id":206921134,"lat":-33.79672,"lng":150.8968,"name":"7-Eleven","brand":"7-Eleven","address":"","postcode":"","state":""},{"id":214229494,"lat":-31.95157,"lng":115.98759,"name":"Ampol","brand":"Ampol","address":"","postcode":"","state":""},{"id":215061112,"lat":-34.89006,"lng":138.57,"name":"OTR Ridleyton","brand":"OTR","address":"South Road, Ridleyton, 5008","postcode":"5008","state":""},{"id":215075715,"lat":-34.85931,"lng":138.51324,"name":"OTR Alberton","brand":"OTR","address":"Port Road, Alberton, 5014","postcode":"5014","state":""},{"id":217422134,"lat":-34.88473,"lng":138.54023,"name":"Liberty Beverley","brand":"Liberty","address":"Port Road, Woodville South, SA, 5011","postcode":"5011","state":"SA"},{"id":219118730,"lat":-34.35067,"lng":139.60299,"name":"Blanchetown Roadhouse","brand":"Coles Express","address":"","postcode":"","state":""},{"id":220228120,"lat":-35.25307,"lng":149.07319,"name":"BP","brand":"BP","address":"","postcode":"","state":""},{"id":220245971,"lat":-34.89342,"lng":138.55503,"name":"OTR West Croydon","brand":"OTR","address":"Port Road, West Croydon, 5008","postcode":"5008","state":""},{"id":222841210,"lat":-33.93966,"lng":151.10054,"name":"Budget Petrol","brand":"","address":"","postcode":"","state":""},{"id":230551609,"lat":-34.8596,"lng":138.58355,"name":"OTR Kilburn","brand":"","address":"Churchill Road, Kilburn, 5084","postcode":"5084","state":""},{"id":230675115,"lat":-34.90006,"lng":138.49084,"name":"Ampol","brand":"Ampol","address":"Military Road, Grange, SA, 5022","postcode":"5022","state":"SA"},{"id":235147453,"lat":-37.7378,"lng":144.93702,"name":"EG Australia","brand":"Ampol","address":"","postcode":"","state":""},{"id":236171528,"lat":-37.73929,"lng":144.94896,"name":"Shell","brand":"Shell","address":"","postcode":"","state":""},{"id":236577304,"lat":-37.70421,"lng":144.95982,"name":"Ampol","brand":"Ampol","address":"","postcode":"","state":""},{"id":242549050,"lat":-34.27191,"lng":140.60787,"name":"OTR Berri","brand":"","address":"Old Sturt Highway, Berri, 5343","postcode":"5343","state":""},{"id":243405130,"lat":-32.78999,"lng":151.63502,"name":"Pearl Energy","brand":"","address":"","postcode":"","state":""},{"id":245450837,"lat":-37.69018,"lng":144.92634,"name":"Metro Petroleum","brand":"Metro Petroleum","address":"","postcode":"","state":""},{"id":245450840,"lat":-37.68914,"lng":144.92686,"name":"Ampol","brand":"Ampol","address":"","postcode":"","state":""},{"id":257205333,"lat":-27.56696,"lng":151.97592,"name":"Shell","brand":"Shell","address":"Cohoe Street","postcode":"","state":""},{"id":258041141,"lat":-37.87526,"lng":144.73813,"name":"United","brand":"United","address":"Wallace Avenue, Point Cook, VIC, 3030","postcode":"3030","state":"VIC"},{"id":258709313,"lat":-37.87743,"lng":144.71363,"name":"United","brand":"United","address":"Old Geelong Road, Hoppers Crossing, VIC, 3029","postcode":"3029","state":"VIC"},{"id":259468228,"lat":-35.09943,"lng":138.53225,"name":"Caltex","brand":"Caltex","address":"Main South Road","postcode":"","state":""},{"id":265140040,"lat":-37.76982,"lng":144.89766,"name":"United","brand":"United","address":"Raleigh Road, Maribyrnong, VIC, 3032","postcode":"3032","state":"VIC"},{"id":266280783,"lat":-34.9303,"lng":138.60588,"name":"OTR Pulteney Street","brand":"OTR","address":"Pulteney Street, Adelaide, 5000","postcode":"5000","state":""},{"id":274467811,"lat":-37.70264,"lng":144.80117,"name":"7-Eleven","brand":"7-Eleven","address":"","postcode":"","state":""},{"id":275133428,"lat":-37.69561,"lng":145.02206,"name":"BP","brand":"BP","address":"Keon Parade, Thomastown, VIC, 3074","postcode":"3074","state":"VIC"},{"id":281827195,"lat":-37.70173,"lng":145.17318,"name":"7-Eleven","brand":"7-Eleven","address":"","postcode":"","state":""},{"id":283094092,"lat":-37.72519,"lng":144.85191,"name":"United","brand":"United","address":"Fullarton Road, Keilor Park, VIC, 3042","postcode":"3042","state":"VIC"},{"id":294907468,"lat":-34.9211,"lng":138.64333,"name":"OTR Kensington","brand":"OTR","address":"The Parade, Kensington, 5068","postcode":"5068","state":""},{"id":302563171,"lat":-38.02797,"lng":145.13017,"name":"7-Eleven","brand":"7-Eleven","address":"Wells Road, Aspendale Gardens, 3195","postcode":"3195","state":""},{"id":302865885,"lat":-38.10115,"lng":144.34479,"name":"APCO North Geelong","brand":"APCO","address":"Thompson Road","postcode":"","state":""},{"id":322172230,"lat":-37.69099,"lng":144.73159,"name":"United","brand":"United","address":"Melton Highway, Hillside, VIC, 3037","postcode":"3037","state":"VIC"},{"id":322612852,"lat":-34.72318,"lng":135.86677,"name":"OTR Port Lincoln","brand":"OTR","address":"King Street, Port Lincoln, 5606","postcode":"5606","state":""},{"id":323394915,"lat":-35.00769,"lng":138.72018,"name":"Caltex","brand":"Caltex","address":"Mount Barker Road, Stirling, SA, 5152","postcode":"5152","state":"SA"},{"id":324880608,"lat":-37.15276,"lng":142.85567,"name":"Metro Petroleum Great Western","brand":"Metro","address":"","postcode":"","state":""},{"id":327949205,"lat":-37.84847,"lng":145.23183,"name":"7-Eleven","brand":"7-Eleven","address":"","postcode":"","state":""},{"id":328307644,"lat":-37.90689,"lng":147.71903,"name":"Astron","brand":"Astron","address":"Paynesville Road, Paynesville, VIC, 3880","postcode":"3880","state":"VIC"},{"id":332758486,"lat":-37.68382,"lng":144.91754,"name":"Caltex","brand":"Caltex","address":"Pascoe Vale Road","postcode":"","state":""},{"id":335105229,"lat":-38.19463,"lng":145.14899,"name":"Ampol","brand":"Ampol","address":"","postcode":"","state":""},{"id":349686298,"lat":-33.89068,"lng":151.12955,"name":"7-Eleven","brand":"7-Eleven","address":"Liverpool Road, Ashfield, NSW, 2131","postcode":"2131","state":"NSW"},{"id":354725377,"lat":-27.87845,"lng":153.37356,"name":"Freedom Hope Island","brand":"Freedom","address":"Broadwater Avenue, Hope Island, QLD, 4212","postcode":"4212","state":"QLD"},{"id":362800035,"lat":-35.44621,"lng":149.80201,"name":"Caltex","brand":"Caltex","address":"Lascelles Street, Braidwood, NSW, 2622","postcode":"2622","state":"NSW"},{"id":362806956,"lat":-35.25637,"lng":149.44262,"name":"Pearl Energy","brand":"","address":"Malbon Street, Bungendore, NSW, 2621","postcode":"2621","state":"NSW"},{"id":362964854,"lat":-34.44137,"lng":148.71609,"name":"Mobil","brand":"Mobil","address":"Marsden Street, Boorowa, NSW, 2586","postcode":"2586","state":"NSW"},{"id":372295244,"lat":-28.19606,"lng":153.54377,"name":"United Tweed Heads South","brand":"United","address":"Minjungbal Drive","postcode":"","state":""},{"id":375761042,"lat":-27.43942,"lng":153.04,"name":"EG Ampol Bowen Hills","brand":"Ampol","address":"Abbotsford Road","postcode":"","state":""},{"id":382652642,"lat":-24.86218,"lng":113.70108,"name":"Ampol","brand":"Ampol","address":"Robinson Street, 6701","postcode":"6701","state":""},{"id":383241905,"lat":-35.16436,"lng":149.13118,"name":"United","brand":"United","address":"","postcode":"","state":""},{"id":387941969,"lat":-38.4296,"lng":145.82114,"name":"Endeavour","brand":"","address":"","postcode":"","state":""},{"id":391355010,"lat":-37.9681,"lng":145.07461,"name":"Shell","brand":"Shell","address":"Warrigal Road, Cheltenham, VIC, 3192","postcode":"3192","state":"VIC"},{"id":391369848,"lat":-38.00117,"lng":145.10577,"name":"EG Braeside","brand":"Ampol","address":"","postcode":"","state":""},{"id":391719624,"lat":-37.752,"lng":145.13455,"name":"Shell","brand":"Shell","address":"","postcode":"","state":""},{"id":391821518,"lat":-37.82668,"lng":144.84817,"name":"EG Altona North","brand":"Ampol","address":"","postcode":"","state":""},{"id":391967023,"lat":-37.77143,"lng":144.92448,"name":"EG Australia","brand":"Ampol","address":"","postcode":"","state":""},{"id":394991513,"lat":-38.13981,"lng":145.12224,"name":"BP","brand":"BP","address":"Cnr Nepean Hwy & Beach Street, Frankston, 3199","postcode":"3199","state":""},{"id":397719947,"lat":-33.71138,"lng":150.36008,"name":"BP","brand":"BP","address":"","postcode":"","state":""},{"id":397867465,"lat":-33.69415,"lng":150.53737,"name":"Shell","brand":"Shell","address":"Great Western Highway, Faulconbridge, 2776","postcode":"2776","state":""},{"id":399440671,"lat":-37.80062,"lng":144.94425,"name":"EG Australia","brand":"Ampol","address":"cnr Arden & Dryburgh Streets, North Melbourne, 3051","postcode":"3051","state":""},{"id":403642346,"lat":-37.75797,"lng":144.74278,"name":"Shell","brand":"Shell","address":"","postcode":"","state":""},{"id":404519584,"lat":-38.05518,"lng":145.24452,"name":"Liberty","brand":"Liberty","address":"","postcode":"","state":""},{"id":409618183,"lat":-36.71142,"lng":142.19902,"name":"Shell","brand":"Shell","address":"Baillie Street","postcode":"","state":""},{"id":421585857,"lat":-31.79668,"lng":115.74557,"name":"EG Australia","brand":"Ampol","address":"Endeavour Road, Hillarys, 6025","postcode":"6025","state":""},{"id":422539921,"lat":-28.1182,"lng":153.47052,"name":"7-Eleven","brand":"7-Eleven","address":"Gold Coast Highway, Palm Beach, QLD, 4221","postcode":"4221","state":"QLD"},{"id":423877325,"lat":-31.89657,"lng":115.87162,"name":"Caltex Woolworths Petrol Dianella","brand":"Ampol","address":"Grand Promenade","postcode":"","state":""},{"id":425855892,"lat":-27.97675,"lng":153.41173,"name":"EG Ampol","brand":"Ampol","address":"Ferry Road, Southport, 4215","postcode":"4215","state":""},{"id":429975076,"lat":-38.60452,"lng":145.59238,"name":"EG Australia","brand":"Ampol","address":"Murray Street","postcode":"","state":""},{"id":432969830,"lat":-29.70625,"lng":152.94217,"name":"BP","brand":"BP","address":"","postcode":"","state":""},{"id":438708675,"lat":-34.87175,"lng":138.7004,"name":"OTR Athelstone","brand":"OTR","address":"Gorge Road, Athelstone, 5076","postcode":"5076","state":""},{"id":438713053,"lat":-35.01702,"lng":138.61697,"name":"OTR Blackwood","brand":"OTR","address":"Main Road, Blackwood, 5051","postcode":"5051","state":""},{"id":438714391,"lat":-35.01994,"lng":138.52349,"name":"OTR Brighton","brand":"OTR","address":"Brighton Road, Brighton, 5048","postcode":"5048","state":""},{"id":438715257,"lat":-34.86853,"lng":138.61843,"name":"OTR Broadview","brand":"OTR","address":"Hampstead Road, Broadview, 5083","postcode":"5083","state":""},{"id":438716505,"lat":-34.89562,"lng":138.58146,"name":"OTR Brompton","brand":"OTR","address":"Torrens Road, Brompton, 5007","postcode":"5007","state":""},{"id":438920486,"lat":-34.83033,"lng":138.59935,"name":"OTR Cavan Inbound","brand":"OTR","address":"Port Wakefield Road, Cavan, 5094","postcode":"5094","state":""},{"id":438921960,"lat":-34.83255,"lng":138.59844,"name":"OTR Cavan Outbound Drive Thru","brand":"OTR","address":"Port Wakefield Road, Cavan, 5094","postcode":"5094","state":""},{"id":438926131,"lat":-35.13073,"lng":138.47485,"name":"OTR Christies Beach Gulfview Road","brand":"OTR","address":"Gulfview Road, Christies Beach, SA, 5165","postcode":"5165","state":"SA"},{"id":439089684,"lat":-35.02509,"lng":138.5611,"name":"OTR Darlington","brand":"OTR","address":"Main South Road, Darlington, SA, 5047","postcode":"5047","state":"SA"},{"id":439089889,"lat":-34.86252,"lng":138.68069,"name":"OTR Dernancourt","brand":"","address":"Lower North East Road, Dernancourt, 5075","postcode":"5075","state":""},{"id":439251212,"lat":-34.92601,"lng":138.66362,"name":"OTR Erindale","brand":"OTR","address":"Kensington Road, Erindale, 5066","postcode":"5066","state":""},{"id":439251650,"lat":-34.98564,"lng":138.52102,"name":"OTR Glenelg East","brand":"OTR","address":"Brighton Road, 5045","postcode":"5045","state":""},{"id":439251677,"lat":-34.99635,"lng":138.53058,"name":"Shell","brand":"Shell","address":"Oaklands Road, Glengowrie, 5044","postcode":"5044","state":""},{"id":439251858,"lat":-34.95274,"lng":138.63556,"name":"OTR Glenunga","brand":"OTR","address":"Glen Osmond Road, Glenunga, 5064","postcode":"5064","state":""},{"id":439252558,"lat":-34.8705,"lng":138.63755,"name":"OTR Greenacres","brand":"OTR","address":"North East Road, 5086","postcode":"5086","state":""},{"id":439627003,"lat":-34.94589,"lng":138.51729,"name":"OTR Harbourtown Drive Thru","brand":"OTR","address":"Tapleys Hill Road, West Beach, 5024","postcode":"5024","state":""},{"id":439627707,"lat":-34.86452,"lng":138.64518,"name":"OTR Hillcrest","brand":"OTR","address":"North East Road, Hillcrest, 5086","postcode":"5086","state":""},{"id":439628809,"lat":-34.85286,"lng":138.66575,"name":"OTR Holden Hill South Cnr Tarton Road","brand":"OTR","address":"North East Road, Holden Hill, 5088","postcode":"5088","state":""},{"id":439630146,"lat":-34.84637,"lng":138.67076,"name":"OTR Holden Hill North","brand":"OTR","address":"North East Road, Holden Hill, 5088","postcode":"5088","state":""},{"id":439822964,"lat":-34.91419,"lng":138.65855,"name":"OTR Kensington Gardens","brand":"OTR","address":"Magill Road, Kensington Gardens, 5068","postcode":"5068","state":""},{"id":439823061,"lat":-34.91619,"lng":138.62239,"name":"OTR Kent Town","brand":"OTR","address":"Fullarton Road, Kent Town, SA, 5067","postcode":"5067","state":"SA"},{"id":439823209,"lat":-34.96604,"lng":138.60895,"name":"OTR Kingswood","brand":"OTR","address":"Belair Road, Kingswood, 5062","postcode":"5062","state":""},{"id":439823683,"lat":-34.8255,"lng":138.50051,"name":"OTR Largs Bay Victoria Road","brand":"","address":"Victoria Road, Largs Bay, 5016","postcode":"5016","state":""},{"id":439825583,"lat":-34.67973,"lng":138.69526,"name":"OTR Munno Para","brand":"OTR","address":"Main North Road, Smithfield, 5114","postcode":"5114","state":""},{"id":439837008,"lat":-35.55095,"lng":138.6232,"name":"Coles Express","brand":"Coles Express","address":"","postcode":"","state":""},{"id":440125033,"lat":-35.72102,"lng":147.31637,"name":"Ampol","brand":"Ampol","address":"","postcode":"","state":""},{"id":440134092,"lat":-34.87664,"lng":138.67362,"name":"OTR Newton","brand":"OTR","address":"Gorge Road, Newton, 5074","postcode":"5074","state":""},{"id":440134160,"lat":-34.92173,"lng":138.63011,"name":"OTR Norwood","brand":"OTR","address":"The Parade, Norwood, 5067","postcode":"5067","state":""},{"id":440137627,"lat":-34.96324,"lng":138.55518,"name":"OTR Plympton","brand":"OTR","address":"Anzac Highway, Plympton, 5038","postcode":"5038","state":""},{"id":441761521,"lat":-27.58012,"lng":152.71656,"name":"Ampol","brand":"Ampol","address":"Warrego Highway","postcode":"","state":""},{"id":443035403,"lat":-37.54301,"lng":143.78418,"name":"EG Australia","brand":"Ampol","address":"Lilburne Street, Lucas, VIC, 3350","postcode":"3350","state":"VIC"},{"id":445891824,"lat":-36.30778,"lng":140.77265,"name":"Caltex Bordertown","brand":"Caltex","address":"North Terrace","postcode":"","state":""},{"id":448570959,"lat":-37.83189,"lng":145.05878,"name":"EG Australia","brand":"Ampol","address":"Riversdale Road, Camberwell, VIC, 3124","postcode":"3124","state":"VIC"},{"id":448595216,"lat":-38.43296,"lng":145.82526,"name":"BP Korumburra South","brand":"BP","address":"Commercial Street, Korumburra, VIC, 3950","postcode":"3950","state":"VIC"},{"id":450019002,"lat":-37.69246,"lng":145.02616,"name":"Caltex","brand":"Caltex","address":"","postcode":"","state":""},{"id":450306234,"lat":-36.41394,"lng":148.62255,"name":"Ampol","brand":"Ampol","address":"","postcode":"","state":""},{"id":450483998,"lat":-34.96977,"lng":149.02978,"name":"BP","brand":"BP","address":"East Street","postcode":"","state":""},{"id":455880760,"lat":-35.34702,"lng":143.56137,"name":"BP","brand":"BP","address":"Campbell Street, Swan Hill, VIC, 3585","postcode":"3585","state":"VIC"},{"id":455881931,"lat":-37.65711,"lng":145.51052,"name":"Shell","brand":"Shell","address":"","postcode":"","state":""},{"id":456719482,"lat":-35.41857,"lng":149.06918,"name":"Coles Express","brand":"Shell","address":"","postcode":"","state":""},{"id":456751642,"lat":-35.39275,"lng":149.06907,"name":"United Kambah","brand":"United","address":"O'Halloran Circuit","postcode":"","state":""},{"id":456757635,"lat":-35.23651,"lng":149.05903,"name":"Ampol","brand":"Ampol","address":"","postcode":"","state":""},{"id":457103413,"lat":-35.31988,"lng":149.13893,"name":"BP Express Kingston","brand":"BP","address":"","postcode":"","state":""},{"id":457106644,"lat":-35.2491,"lng":149.13744,"name":"Coles Express","brand":"Coles Express","address":"","postcode":"","state":""},{"id":457755636,"lat":-35.2031,"lng":149.21063,"name":"United","brand":"United","address":"","postcode":"","state":""},{"id":457762243,"lat":-37.02027,"lng":145.12785,"name":"Liberty Seymour","brand":"Liberty","address":"Emily Street","postcode":"","state":""},{"id":462927454,"lat":-31.79519,"lng":115.89945,"name":"United","brand":"United","address":"","postcode":"","state":""},{"id":464848342,"lat":-33.76673,"lng":150.67966,"name":"7-Eleven","brand":"7-Eleven","address":"","postcode":"","state":""},{"id":466521644,"lat":-37.65467,"lng":145.02108,"name":"EG Australia","brand":"Ampol","address":"","postcode":"","state":""},{"id":466535462,"lat":-37.66032,"lng":145.02999,"name":"7-Eleven","brand":"7-Eleven","address":"Dalton Road","postcode":"","state":""},{"id":470057122,"lat":-38.17922,"lng":144.35172,"name":"7-Eleven","brand":"7-Eleven","address":"Settlement Road","postcode":"","state":""},{"id":471987018,"lat":-33.43443,"lng":151.29627,"name":"Shell Coles Express Kariong","brand":"Coles Express","address":"Central Coast Highway, Kariong, NSW","postcode":"","state":"NSW"},{"id":472265663,"lat":-35.11608,"lng":147.35091,"name":"Coles Express","brand":"Shell","address":"","postcode":"","state":""},{"id":472789646,"lat":-38.63164,"lng":145.72944,"name":"BP Inverloch","brand":"BP","address":"Williams Street, Inverloch, VIC, 3996","postcode":"3996","state":"VIC"},{"id":472924124,"lat":-34.55003,"lng":146.39908,"name":"EG Australia","brand":"Ampol","address":"","postcode":"","state":""},{"id":473334478,"lat":-34.93997,"lng":138.6339,"name":"OTR Glenside","brand":"OTR","address":"Greenhill Road, Glenside, 5065","postcode":"5065","state":""},{"id":473960737,"lat":-38.0709,"lng":145.47883,"name":"BP","brand":"BP","address":"","postcode":"","state":""},{"id":475434111,"lat":-27.56835,"lng":151.95169,"name":"EG Ampol","brand":"Ampol","address":"Ruthven Street","postcode":"","state":""},{"id":477620562,"lat":-36.38287,"lng":145.40994,"name":"EG Ampol","brand":"Ampol","address":"","postcode":"","state":""},{"id":480094760,"lat":-38.40155,"lng":146.16099,"name":"BP Evans Petroleum Mirboo North","brand":"BP","address":"","postcode":"","state":""},{"id":480581820,"lat":-27.22334,"lng":153.03753,"name":"EG Australia","brand":"Ampol","address":"Anzac Avenue, Mango Hill, QLD, 4509","postcode":"4509","state":"QLD"},{"id":486009540,"lat":-33.91616,"lng":151.10875,"name":"Budget Campsie","brand":"Budget Petrol","address":"","postcode":"","state":""},{"id":487238511,"lat":-33.72404,"lng":150.9388,"name":"Ampol","brand":"Ampol","address":"","postcode":"","state":""},{"id":489007421,"lat":-37.77315,"lng":144.82904,"name":"United Sunshine North","brand":"United","address":"McIntyre Road, Sunshine North, VIC, 3020","postcode":"3020","state":"VIC"},{"id":491547834,"lat":-34.88021,"lng":138.50329,"name":"BP","brand":"BP","address":"","postcode":"","state":""},{"id":494292420,"lat":-33.74566,"lng":151.29206,"name":"Ampol Foodary","brand":"Ampol","address":"Pittwater Road, Dee Why, 2099","postcode":"2099","state":""},{"id":497436990,"lat":-27.56597,"lng":152.42217,"name":"Mobil","brand":"Mobil","address":"","postcode":"","state":""},{"id":497888663,"lat":-27.5228,"lng":151.85181,"name":"BP Toowoomba Westbound Truckstop","brand":"BP","address":"Warrego Highway","postcode":"","state":""},{"id":498407441,"lat":-34.82818,"lng":138.69201,"name":"Woolworths Petrol","brand":"Ampol","address":"","postcode":"","state":""},{"id":499202893,"lat":-34.83065,"lng":138.4877,"name":"LPG Station","brand":"","address":"","postcode":"","state":""},{"id":499211596,"lat":-36.76005,"lng":144.24594,"name":"United","brand":"United","address":"","postcode":"","state":""},{"id":503659227,"lat":-35.18352,"lng":149.12661,"name":"Coles Express","brand":"Coles Express","address":"","postcode":"","state":""},{"id":503659229,"lat":-35.18381,"lng":149.12594,"name":"Woolworths Petrol","brand":"Caltex","address":"","postcode":"","state":""},{"id":503659457,"lat":-35.17564,"lng":149.09583,"name":"7-Eleven","brand":"7-Eleven","address":"","postcode":"","state":""},{"id":505424010,"lat":-38.08481,"lng":145.472,"name":"Shell","brand":"Shell","address":"","postcode":"","state":""},{"id":507688555,"lat":-37.80847,"lng":144.90189,"name":"BP","brand":"BP","address":"","postcode":"","state":""},{"id":509108661,"lat":-33.76969,"lng":150.94214,"name":"Woolworths Caltex Seven Hills","brand":"Caltex","address":"Prospect Highway","postcode":"","state":""},{"id":511509586,"lat":-35.35904,"lng":145.73987,"name":"Ampol","brand":"Ampol","address":"","postcode":"","state":""},{"id":516266176,"lat":-37.82742,"lng":147.62663,"name":"Shell","brand":"Shell","address":"","postcode":"","state":""},{"id":525120744,"lat":-37.83152,"lng":144.7464,"name":"Ampol","brand":"Ampol","address":"Palmers Road, Truganina, VIC, 3029","postcode":"3029","state":"VIC"},{"id":531129020,"lat":-37.8106,"lng":140.75399,"name":"BP Mount Gambier OPT","brand":"BP","address":"","postcode":"","state":""},{"id":543004117,"lat":-32.65569,"lng":138.10191,"name":"SJ & JA Wild - Hunts Fuel","brand":"Ampol","address":"","postcode":"","state":""},{"id":543015203,"lat":-34.71962,"lng":138.67098,"name":"EG Australia","brand":"Ampol","address":"Playford Boulevard","postcode":"","state":""},{"id":543022222,"lat":-34.926,"lng":138.51802,"name":"OTR Fulham","brand":"OTR","address":"Henley Beach Road, Fulham, 5024","postcode":"5024","state":""},{"id":543195135,"lat":-34.96601,"lng":138.5904,"name":"OTR Clarence Park","brand":"OTR","address":"Goodwood Road, Clarence Park, 5034","postcode":"5034","state":""},{"id":543668153,"lat":-27.98903,"lng":152.99526,"name":"Ampol Beaudesert South","brand":"Ampol","address":"Telemon Street, Beaudesert, 4285","postcode":"4285","state":""},{"id":544431955,"lat":-34.69151,"lng":138.68782,"name":"Ampol","brand":"Ampol","address":"Main North Road","postcode":"","state":""},{"id":560467444,"lat":-37.75339,"lng":144.94496,"name":"Woolworths Petrol","brand":"Ampol","address":"Moreland Road","postcode":"","state":""},{"id":563005827,"lat":-36.76397,"lng":144.28189,"name":"EG Australia","brand":"Ampol","address":"Mitchell Street, Bendigo, VIC, 3550","postcode":"3550","state":"VIC"},{"id":574460528,"lat":-27.64287,"lng":153.10031,"name":"Ampol","brand":"Ampol","address":"Wembley Road","postcode":"","state":""},{"id":580834769,"lat":-35.70002,"lng":150.18276,"name":"Ampol","brand":"Ampol","address":"","postcode":"","state":""},{"id":580872225,"lat":-36.82535,"lng":139.86221,"name":"On the Run","brand":"On the Run","address":"Princes Highway","postcode":"","state":""},{"id":580872467,"lat":-36.82469,"lng":139.86174,"name":"Shell","brand":"Shell","address":"","postcode":"","state":""},{"id":583063667,"lat":-37.69315,"lng":144.99056,"name":"Caltex","brand":"Caltex","address":"","postcode":"","state":""},{"id":583102104,"lat":-34.99126,"lng":138.52138,"name":"Woolworths Petrol Somerton Park","brand":"Ampol","address":"Brighton Road","postcode":"","state":""},{"id":583594762,"lat":-37.77619,"lng":144.81742,"name":"United","brand":"United","address":"Ballarat Road, VIC","postcode":"","state":"VIC"},{"id":584061092,"lat":-37.78376,"lng":144.93593,"name":"BP","brand":"BP","address":"","postcode":"","state":""},{"id":590816710,"lat":-34.75298,"lng":138.64965,"name":"On The Run","brand":"OTR","address":"","postcode":"","state":""},{"id":591568189,"lat":-33.91496,"lng":151.11302,"name":"BP 2Go Canterbury","brand":"BP","address":"Canterbury Road, Canterbury, 2193","postcode":"2193","state":""},{"id":593654563,"lat":-27.45222,"lng":152.64858,"name":"Freedom Fuel Fernvale","brand":"","address":"","postcode":"","state":""},{"id":604574001,"lat":-27.5245,"lng":153.25367,"name":"Ampol","brand":"Ampol","address":"Shore Street West, Cleveland, QLD, 4163","postcode":"4163","state":"QLD"},{"id":608054993,"lat":-27.56846,"lng":151.95246,"name":"Ampol","brand":"Ampol","address":"Ruthven Street","postcode":"","state":""},{"id":609100137,"lat":-36.76569,"lng":144.26764,"name":"Shell","brand":"Shell","address":"","postcode":"","state":""},{"id":617491751,"lat":-34.74938,"lng":149.72324,"name":"Caltex","brand":"Caltex","address":"","postcode":"","state":""},{"id":621677456,"lat":-36.72768,"lng":146.96544,"name":"BP","brand":"BP","address":"","postcode":"","state":""},{"id":629498201,"lat":-27.56638,"lng":151.93165,"name":"Woolworths Petrol","brand":"Ampol","address":"James Street, Harristown, QLD, 4350","postcode":"4350","state":"QLD"},{"id":629865603,"lat":-38.06383,"lng":145.43645,"name":"EG Ampol Officer","brand":"Ampol","address":"Cardinia Road, Officer, VIC, 3809","postcode":"3809","state":"VIC"},{"id":654313715,"lat":-34.87258,"lng":138.54863,"name":"EG Australia","brand":"Ampol","address":"","postcode":"","state":""},{"id":655961550,"lat":-37.74651,"lng":144.82079,"name":"United St Albans North","brand":"United","address":"Main Road East, St Albans, VIC, 3021","postcode":"3021","state":"VIC"},{"id":655961551,"lat":-37.74859,"lng":144.80354,"name":"United St Albans","brand":"United","address":"St Albans Road, St Albans, VIC, 3021","postcode":"3021","state":"VIC"},{"id":655961552,"lat":-37.76966,"lng":144.7754,"name":"United","brand":"United","address":"Ballarat Road, Deer Park, VIC, 3023","postcode":"3023","state":"VIC"},{"id":655961553,"lat":-37.78186,"lng":144.75537,"name":"United","brand":"United","address":"Foleys Road","postcode":"","state":""},{"id":655961554,"lat":-37.83925,"lng":144.82512,"name":"BP","brand":"BP","address":"Pinnacle Road, Altona North, VIC, 3025","postcode":"3025","state":"VIC"},{"id":655961556,"lat":-37.83857,"lng":144.73029,"name":"United Truganina","brand":"United","address":"Leakes Road, Truganina, VIC, 3029","postcode":"3029","state":"VIC"},{"id":655961557,"lat":-37.80286,"lng":144.92983,"name":"United Kensington","brand":"United","address":"Dynon Road, West Melbourne, VIC, 3003","postcode":"3003","state":"VIC"},{"id":659465594,"lat":-26.62249,"lng":153.04223,"name":"United Bli Bli","brand":"United","address":"","postcode":"","state":""},{"id":663648689,"lat":-27.56099,"lng":153.01043,"name":"United Petroleum","brand":"United","address":"Balham Road, Archerfield, QLD, 4108","postcode":"4108","state":"QLD"},{"id":668646787,"lat":-33.70748,"lng":151.29643,"name":"7-Eleven Narrabeen North","brand":"7-Eleven","address":"","postcode":"","state":""},{"id":670211801,"lat":-33.74914,"lng":151.29021,"name":"7-Eleven Dee Why","brand":"7-Eleven","address":"Pittwater Road, Dee Why, NSW, 2099","postcode":"2099","state":"NSW"},{"id":680047917,"lat":-34.77572,"lng":150.69614,"name":"Shell Berry","brand":"Shell","address":"Queen Street, Berry, NSW, 2535","postcode":"2535","state":"NSW"},{"id":682564908,"lat":-34.91444,"lng":138.6408,"name":"OTR Trinity Gardens","brand":"OTR","address":"","postcode":"","state":""},{"id":700758892,"lat":-33.42734,"lng":151.32138,"name":"Ampol Foodary Gosford West (East bound)","brand":"Ampol","address":"Central Coast Highway","postcode":"","state":""},{"id":700758893,"lat":-33.42778,"lng":151.31902,"name":"Ampol Foodary Gosford West (west bound)","brand":"Ampol","address":"Central Coast Highway","postcode":"","state":""},{"id":705365933,"lat":-27.57911,"lng":152.71297,"name":"BP","brand":"BP","address":"Warrego Highway, Blacksoil, QLD, 4306","postcode":"4306","state":"QLD"},{"id":706654570,"lat":-37.84262,"lng":144.77155,"name":"United","brand":"United","address":"Leakes Road, Laverton North, VIC, 3026","postcode":"3026","state":"VIC"},{"id":710822362,"lat":-37.7528,"lng":145.0564,"name":"Dayef","brand":"Dayef","address":"Upper Heidelberg Road","postcode":"","state":""},{"id":715751857,"lat":-31.97358,"lng":116.05932,"name":"Vibe Kalamunda","brand":"Vibe","address":"Mead Street, Kalamunda, WA, 6076","postcode":"6076","state":"WA"},{"id":722838063,"lat":-26.70504,"lng":153.13005,"name":"Coles Express Kawana","brand":"Shell","address":"Nicklin Way, Buddina","postcode":"","state":""},{"id":736227429,"lat":-35.46348,"lng":143.63534,"name":"Metro Petroleum","brand":"Metro Petroleum","address":"","postcode":"","state":""},{"id":739705871,"lat":-34.93237,"lng":138.56913,"name":"BP Hilton","brand":"BP","address":"","postcode":"","state":""},{"id":741113968,"lat":-30.34014,"lng":152.71011,"name":"United","brand":"United","address":"","postcode":"","state":""},{"id":743463755,"lat":-35.22083,"lng":149.01789,"name":"7-Eleven Holt","brand":"7-Eleven","address":"","postcode":"","state":""},{"id":743464020,"lat":-35.22421,"lng":149.0209,"name":"Ampol","brand":"Ampol","address":"","postcode":"","state":""},{"id":746277033,"lat":-33.76165,"lng":151.27626,"name":"Woolworths Caltex Brookvale","brand":"Ampol","address":"Pittwater Road, Brookvale, NSW, 2100","postcode":"2100","state":"NSW"},{"id":747454533,"lat":-34.81779,"lng":138.96641,"name":"LPG Station","brand":"","address":"","postcode":"","state":""},{"id":749639975,"lat":-34.0878,"lng":151.00697,"name":"Coles Express","brand":"Shell","address":"","postcode":"","state":""},{"id":756065564,"lat":-35.70311,"lng":149.1593,"name":"Astron Michelago","brand":"Astron","address":"","postcode":"","state":""},{"id":761605968,"lat":-35.006,"lng":138.71858,"name":"BP","brand":"BP","address":"Mount Barker Road, Stirling, SA, 5152","postcode":"5152","state":"SA"},{"id":763278783,"lat":-33.91805,"lng":151.06323,"name":"Metro Petroleum","brand":"Metro Petroleum","address":"Park Avenue, Punchbowl, NSW, 2196","postcode":"2196","state":"NSW"},{"id":769046252,"lat":-32.82774,"lng":151.49142,"name":"BP","brand":"BP","address":"","postcode":"","state":""},{"id":778127977,"lat":-35.12386,"lng":138.52383,"name":"OTR Morphett Vale Outbound","brand":"OTR","address":"Main South Road","postcode":"","state":""},{"id":785265151,"lat":-17.93731,"lng":138.8312,"name":"Doomadgee Roadhouse","brand":"","address":"","postcode":"","state":""},{"id":790213542,"lat":-29.72734,"lng":151.74072,"name":"United Glen Innes Roadhouse","brand":"United","address":"Church Street, Glen Innes, NSW, 2370","postcode":"2370","state":"NSW"},{"id":790233685,"lat":-30.206,"lng":151.67577,"name":"Ampol Guyra","brand":"Ampol","address":"New England Highway, Guyra, NSW, 2365","postcode":"2365","state":"NSW"},{"id":792749977,"lat":-37.63922,"lng":144.88022,"name":"Liberty Greenvale","brand":"Liberty","address":"Mickleham Road, Greenvale, VIC, 3059","postcode":"3059","state":"VIC"},{"id":807423601,"lat":-37.82247,"lng":144.83037,"name":"United","brand":"United","address":"Princes Highway","postcode":"","state":""},{"id":823021232,"lat":-35.19483,"lng":149.06228,"name":"LPG Station","brand":"","address":"","postcode":"","state":""},{"id":828303690,"lat":-34.9333,"lng":138.6595,"name":"OTR Hazelwood Park","brand":"BP","address":"Glynburn Road, Hazelwood Park","postcode":"","state":""},{"id":830701815,"lat":-31.83569,"lng":115.78313,"name":"Shell","brand":"Shell","address":"","postcode":"","state":""},{"id":835486102,"lat":-33.67691,"lng":151.30823,"name":"7-Eleven","brand":"7-Eleven","address":"","postcode":"","state":""},{"id":838182896,"lat":-27.09834,"lng":152.9493,"name":"Coles Express","brand":"Shell","address":"Morayfield Road, Caboolture South, QLD, 4510","postcode":"4510","state":"QLD"},{"id":857974470,"lat":-33.45236,"lng":150.11757,"name":"United","brand":"United","address":"","postcode":"","state":""},{"id":859917286,"lat":-27.52297,"lng":153.21986,"name":"Ampol","brand":"Ampol","address":"Cambridge Drive, Alexandra Hills, QLD, 4161","postcode":"4161","state":"QLD"},{"id":859954054,"lat":-30.29065,"lng":153.11958,"name":"24 Hour Liberty Fuel","brand":"24 Hour Liberty Fuel","address":"","postcode":"","state":""},{"id":861264591,"lat":-36.77256,"lng":144.30441,"name":"EG Ampol","brand":"Ampol","address":"","postcode":"","state":""},{"id":864122651,"lat":-33.83386,"lng":148.68725,"name":"United","brand":"United","address":"Kendal Street, Cowra, NSW, 2794","postcode":"2794","state":"NSW"},{"id":866987817,"lat":-27.54742,"lng":153.12817,"name":"Ampol","brand":"Ampol","address":"Mount Gravatt-Capalaba Road, Mackenzie, QLD, 4156","postcode":"4156","state":"QLD"},{"id":876104296,"lat":-33.49392,"lng":151.32084,"name":"Shell","brand":"Shell","address":"","postcode":"","state":""},{"id":878489791,"lat":-32.04617,"lng":115.81273,"name":"United","brand":"United","address":"Leach Highway","postcode":"","state":""},{"id":884204870,"lat":-34.28324,"lng":140.59623,"name":"United","brand":"United","address":"Old Sturt Highway","postcode":"","state":""},{"id":892268383,"lat":-31.12836,"lng":150.92356,"name":"United","brand":"United","address":"","postcode":"","state":""},{"id":892640894,"lat":-36.44034,"lng":145.23063,"name":"Ampol","brand":"Ampol","address":"","postcode":"","state":""},{"id":902272674,"lat":-33.76471,"lng":150.90876,"name":"EG Australia","brand":"Ampol","address":"","postcode":"","state":""},{"id":907189871,"lat":-27.58873,"lng":151.94806,"name":"BP","brand":"BP","address":"Ruthven Street","postcode":"","state":""},{"id":917647615,"lat":-27.08522,"lng":152.95755,"name":"Ampol","brand":"Ampol","address":"Lower King Street","postcode":"","state":""},{"id":969655677,"lat":-33.27008,"lng":151.44271,"name":"United","brand":"United","address":"","postcode":"","state":""},{"id":971247116,"lat":-34.76139,"lng":138.64971,"name":"On The Run","brand":"OTR","address":"Commercial Road","postcode":"","state":""},{"id":971827441,"lat":-34.76871,"lng":138.65109,"name":"On The Run","brand":"OTR","address":"Park Terrace","postcode":"","state":""},{"id":979458147,"lat":-34.84817,"lng":148.91615,"name":"Astron Fuels","brand":"Astron Fuels","address":"Comur Street, Yass, NSW, 2582","postcode":"2582","state":"NSW"},{"id":985368225,"lat":-37.83405,"lng":145.16384,"name":"Shell Reddy Express","brand":"Shell","address":"Canterbury Road, Forest Hill, VIC, 3131","postcode":"3131","state":"VIC"},{"id":1003489121,"lat":-27.23923,"lng":153.00958,"name":"Ampol","brand":"Ampol","address":"Stapylton Street, North Lakes, QLD, 4509","postcode":"4509","state":"QLD"},{"id":1004296971,"lat":-27.19019,"lng":153.01859,"name":"Coles Express","brand":"Shell","address":"Deception Bay Road, Deception Bay, QLD, 4508","postcode":"4508","state":"QLD"},{"id":1004296983,"lat":-27.2052,"lng":153.03836,"name":"Liberty Oil","brand":"Liberty","address":"Deception Bay Road, Deception Bay, QLD, 4508","postcode":"4508","state":"QLD"},{"id":1004342410,"lat":-27.24099,"lng":153.0866,"name":"Metro Petroleum","brand":"Metro Petroleum","address":"Elizabeth Avenue, Clontarf, QLD, 4019","postcode":"4019","state":"QLD"},{"id":1004342421,"lat":-27.25548,"lng":153.09443,"name":"BP","brand":"BP","address":"Hornibrook Esplanade, Woody Point, QLD, 4019","postcode":"4019","state":"QLD"},{"id":1004342437,"lat":-27.2429,"lng":153.10671,"name":"Liberty Oil","brand":"Liberty","address":"Oxley Avenue, Margate, QLD, 4019","postcode":"4019","state":"QLD"},{"id":1012938312,"lat":-36.71783,"lng":144.25139,"name":"BP","brand":"BP","address":"Peg Leg Road, Eaglehawk, VIC, 3556","postcode":"3556","state":"VIC"},{"id":1017526751,"lat":-34.87849,"lng":150.60436,"name":"BP","brand":"BP","address":"","postcode":"","state":""},{"id":1026009187,"lat":-37.84758,"lng":144.68769,"name":"Caltex Tarneit","brand":"Caltex","address":"Derrimut Road, Tarneit","postcode":"","state":""},{"id":1035236429,"lat":-34.03394,"lng":139.66809,"name":"Ampol Morgan Roadhouse","brand":"Ampol","address":"Fourth Street, Morgan, SA, 5320","postcode":"5320","state":"SA"},{"id":1038609657,"lat":-31.42772,"lng":152.89577,"name":"Euro Garages Port Macquarie","brand":"Ampol","address":"Bay Street","postcode":"","state":""},{"id":1039502257,"lat":-34.9822,"lng":138.57443,"name":"United Melrose Park","brand":"United","address":"South Road","postcode":"","state":""},{"id":1040727959,"lat":-37.78554,"lng":145.38236,"name":"Fast Fuel","brand":"","address":"Monbulk Road, Mount Evelyn, VIC, 3796","postcode":"3796","state":"VIC"},{"id":1043287185,"lat":-37.82574,"lng":145.4219,"name":"LPG","brand":"Shell","address":"","postcode":"","state":""},{"id":1047373579,"lat":-33.33047,"lng":151.42384,"name":"BP","brand":"BP","address":"Blade Close","postcode":"","state":""},{"id":1050722631,"lat":-37.81754,"lng":145.31719,"name":"7-Eleven","brand":"7-Eleven","address":"","postcode":"","state":""},{"id":1065755328,"lat":-34.63944,"lng":143.56353,"name":"Ampol Balranald","brand":"Ampol","address":"","postcode":"","state":""},{"id":1079924970,"lat":-34.1923,"lng":142.17439,"name":"Liberty Mildura","brand":"Liberty","address":"Etiwanda Avenue","postcode":"","state":""},{"id":1080177424,"lat":-28.07142,"lng":153.37981,"name":"EG Robina","brand":"Ampol","address":"Laver Drive","postcode":"","state":""},{"id":1105092149,"lat":-38.10001,"lng":144.35456,"name":"Shell","brand":"Shell","address":"","postcode":"","state":""},{"id":1110318393,"lat":-34.03232,"lng":150.75615,"name":"Ampol Smeaton Grange","brand":"Ampol","address":"Dunn Road","postcode":"","state":""},{"id":1127619227,"lat":-35.5237,"lng":144.98073,"name":"Shell","brand":"Shell","address":"","postcode":"","state":""},{"id":1137144484,"lat":-34.60181,"lng":138.74903,"name":"BP","brand":"BP","address":"Murray Street, Gawler, SA, 5118","postcode":"5118","state":"SA"},{"id":1137146441,"lat":-34.94299,"lng":138.60029,"name":"OTR Unley","brand":"OTR","address":"","postcode":"","state":""},{"id":1139110949,"lat":-35.36315,"lng":150.47254,"name":"EG Australia","brand":"Ampol","address":"","postcode":"","state":""},{"id":1145571587,"lat":-28.03559,"lng":153.42536,"name":"7-Eleven","brand":"7-Eleven","address":"Hooker Boulevard","postcode":"","state":""},{"id":1147492073,"lat":-28.08065,"lng":153.3842,"name":"7-Eleven Robina Town Centre","brand":"7-Eleven","address":"Robina Town Centre Drive","postcode":"","state":""},{"id":1149289047,"lat":-38.06467,"lng":145.50638,"name":"United","brand":"United","address":"","postcode":"","state":""},{"id":1152801653,"lat":-38.20091,"lng":146.53536,"name":"Liberty Traralgon","brand":"Liberty","address":"","postcode":"","state":""},{"id":1152801656,"lat":-38.19931,"lng":146.53441,"name":"Shell","brand":"Shell","address":"","postcode":"","state":""},{"id":1155693776,"lat":-35.14079,"lng":147.37556,"name":"Ampol","brand":"Ampol","address":"","postcode":"","state":""},{"id":1155714792,"lat":-25.29305,"lng":152.89369,"name":"EG Ampol Urangan","brand":"Ampol","address":"Elizabeth Street, Urangan, QLD, 4655","postcode":"4655","state":"QLD"},{"id":1160369372,"lat":-32.03903,"lng":115.90444,"name":"BP","brand":"BP","address":"High Road","postcode":"","state":""},{"id":1178687719,"lat":-26.77964,"lng":153.01719,"name":"BP Glenview","brand":"BP","address":"","postcode":"","state":""},{"id":1180556004,"lat":-38.37002,"lng":144.81709,"name":"EG Australia","brand":"Ampol","address":"","postcode":"","state":""},{"id":1184954617,"lat":-37.7885,"lng":145.15894,"name":"EG Australia","brand":"Ampol","address":"Doncaster Road, Doncaster East, VIC, 3109","postcode":"3109","state":"VIC"},{"id":1192910502,"lat":-27.12458,"lng":152.97616,"name":"BP","brand":"BP","address":"","postcode":"","state":""},{"id":1192910503,"lat":-27.12345,"lng":152.97833,"name":"BP","brand":"BP","address":"","postcode":"","state":""},{"id":1192910507,"lat":-27.09345,"lng":152.94934,"name":"Metro Petroleum","brand":"Metro Petroleum","address":"Morayfield Road, Caboolture South, QLD, 4510","postcode":"4510","state":"QLD"},{"id":1193266606,"lat":-27.42607,"lng":153.15357,"name":"BP PORT OF BRISBANE","brand":"BP","address":"Export Street, Lytton, QLD, 4178","postcode":"4178","state":"QLD"},{"id":1194656649,"lat":-37.71564,"lng":145.1357,"name":"Ampol Montmorency","brand":"Ampol","address":"Sherbourne Road, Montmorency, VIC, 3094","postcode":"3094","state":"VIC"},{"id":1199472333,"lat":-33.76371,"lng":151.04736,"name":"BP Carlingford","brand":"BP","address":"Pennant Hills Road","postcode":"","state":""},{"id":1206746336,"lat":-36.76709,"lng":144.266,"name":"EG Ampol","brand":"Ampol","address":"","postcode":"","state":""},{"id":1206752622,"lat":-36.73292,"lng":144.26471,"name":"Ampol","brand":"Ampol","address":"Sandhurst Road","postcode":"","state":""},{"id":1215004122,"lat":-27.37326,"lng":152.88625,"name":"Ampol","brand":"Ampol","address":"Mount Glorious Road, Samford Village, QLD, 4520","postcode":"4520","state":"QLD"},{"id":1215248540,"lat":-27.39315,"lng":153.07231,"name":"BP","brand":"BP","address":"Toombul Road, Northgate, 4013","postcode":"4013","state":""},{"id":1215248544,"lat":-27.37792,"lng":153.09359,"name":"Coles Express","brand":"Shell","address":"","postcode":"","state":""},{"id":1215248545,"lat":-27.3956,"lng":153.10764,"name":"Coles Express","brand":"Coles Express","address":"","postcode":"","state":""},{"id":1219986148,"lat":-36.25286,"lng":142.39443,"name":"Bentleys Fuel Service","brand":"","address":"","postcode":"","state":""},{"id":1226424226,"lat":-34.80325,"lng":138.71773,"name":"Coles Express Fairview Park","brand":"Coles Express","address":"Hancock Road, Fairview Park, SA, 5126","postcode":"5126","state":"SA"},{"id":1228739172,"lat":-35.06688,"lng":138.8569,"name":"OTR","brand":"OTR","address":"","postcode":"","state":""},{"id":1230034246,"lat":-32.11143,"lng":115.8389,"name":"United","brand":"United","address":"Berrigan Drive, South Lake, 6164","postcode":"6164","state":""},{"id":1239891195,"lat":-33.56297,"lng":150.83835,"name":"United","brand":"United","address":"Wilberforce Road, 2756","postcode":"2756","state":""},{"id":1253844812,"lat":-37.6469,"lng":144.95093,"name":"Shell Coles Express Campbellfield","brand":"Shell","address":"Sydney Road, Campbellfield, VIC, 3061","postcode":"3061","state":"VIC"},{"id":1279662708,"lat":-31.48464,"lng":118.29085,"name":"Caltex Merredin","brand":"Caltex","address":"Todd Street, Merredin","postcode":"","state":""},{"id":1290382541,"lat":-33.11639,"lng":151.47784,"name":"Pearl Energy Morisset","brand":"Pearl Energy","address":"Alliance Avenue","postcode":"","state":""},{"id":1290634863,"lat":-32.79924,"lng":151.64506,"name":"Astron Beresfield","brand":"","address":"","postcode":"","state":""},{"id":1309608013,"lat":-34.74539,"lng":138.65798,"name":"United","brand":"United","address":"Philip Highway","postcode":"","state":""},{"id":1348433079,"lat":-34.88849,"lng":150.6094,"name":"Mobil","brand":"Mobil","address":"","postcode":"","state":""},{"id":1351120305,"lat":-33.92261,"lng":147.20144,"name":"Shell","brand":"Shell","address":"","postcode":"","state":""},{"id":1355816934,"lat":-37.52695,"lng":143.82496,"name":"United Filling Station","brand":"United","address":"Gillies Street North, Wendouree, VIC, 3355","postcode":"3355","state":"VIC"},{"id":1367186223,"lat":-37.82537,"lng":145.28828,"name":"Shell","brand":"Shell","address":"","postcode":"","state":""},{"id":1395342825,"lat":-35.33014,"lng":149.16274,"name":"BP Fyshwick","brand":"BP","address":"Ipswich Street, Fyshwick, ACT, 2609","postcode":"2609","state":"ACT"},{"id":1409117338,"lat":-34.27141,"lng":140.53011,"name":"Shell Glossop Roadhouse","brand":"Shell","address":"Anderson Terrace, Glossop, SA, 5344","postcode":"5344","state":"SA"},{"id":1418234858,"lat":-28.0375,"lng":151.9891,"name":"Freedom Allora","brand":"Freedom","address":"","postcode":"","state":""},{"id":1421091556,"lat":-33.69885,"lng":149.85994,"name":"BP Oberon Truckstop","brand":"BP","address":"Albion Street, Oberon, NSW, 2787","postcode":"2787","state":"NSW"},{"id":1424512314,"lat":-31.98129,"lng":141.45864,"name":"Ampol","brand":"Ampol","address":"","postcode":"","state":""},{"id":1443691741,"lat":-37.90922,"lng":144.67702,"name":"7-Eleven","brand":"7-Eleven","address":"","postcode":"","state":""},{"id":1450419734,"lat":-35.05554,"lng":138.85195,"name":"BP","brand":"BP","address":"Diagonal Road","postcode":"","state":""}]